[
  {
    "bankId": "6003",
    "city": "01",
    "district": "Seyhan",
    "address": "Meydan Mah. Kıbrıs Cd. No: 20",
    "longitude": 35.303,
    "latitude": 36.9858,
    "type": "ATM",
    "neighborhood": "Meydan Mh.",
    "single": "H",
    "onsite": "Onsite",
    "access": "",
    "serviceType": "",
    "salary": null,
    "barcodeReader": "H",
    "coin": "E",
    "moneyRecognition": "E"
  },
  {
    "bankId": "6003",
    "city": "35",
    "district": "Buca",
    "address": "Inönü Mah 677/19 Sk.123",
    "longitude": 27.14078,
    "latitude": 38.350197,
    "type": "ATM",
    "neighborhood": "İnönü Mh.",
    "single": "H",
    "onsite": "Onsite",
    "access": "",
    "serviceType": "",
    "salary": null,
    "barcodeReader": "H",
    "coin": "E",
    "moneyRecognition": "E"
  },
  {
    "bankId": "6003",
    "city": "35",
    "district": "Buca",
    "address": "222/14 Sokak No:28/A Buca/İzmir",
    "longitude": 27.162415,
    "latitude": 38.374184,
    "type": "ATM",
    "neighborhood": "Yenigün Mh.",
    "single": "H",
    "onsite": "Onsite",
    "access": "",
    "serviceType": "",
    "salary": null,
    "barcodeReader": "H",
    "coin": "E",
    "moneyRecognition": "E"
  },
  {
    "bankId": "6003",
    "city": "01",
    "district": "Aladağ",
    "address": "Mansurlu Mh. İnönü Cd. No:79",
    "longitude": 35.393303,
    "latitude": 37.550056,
    "type": "ATM",
    "neighborhood": "Mansurlu Mh.",
    "single": "H",
    "onsite": "Onsite",
    "access": "",
    "serviceType": "",
    "salary": null,
    "barcodeReader": "H",
    "coin": "E",
    "moneyRecognition": "E"
  },
  {
    "bankId": "6003",
    "city": "01",
    "district": "Ceyhan",
    "address": "Büyükkırım Mah.Adana Cd.No.1 01920 Ceyhan",
    "longitude": 35.80951,
    "latitude": 37.02411,
    "type": "ATM",
    "neighborhood": "Büyükkırım Mh.",
    "single": "H",
    "onsite": "Onsite",
    "access": "",
    "serviceType": "",
    "salary": null,
    "barcodeReader": "H",
    "coin": "E",
    "moneyRecognition": "E"
  },
  {
    "bankId": "6003",
    "city": "01",
    "district": "Ceyhan",
    "address": "Büyükkırım Mah.Adana Cd.No.1 01920 Ceyhan",
    "longitude": 35.80951,
    "latitude": 37.02411,
    "type": "ATM",
    "neighborhood": "Büyükkırım Mh.",
    "single": "H",
    "onsite": "Onsite",
    "access": "",
    "serviceType": "",
    "salary": null,
    "barcodeReader": "H",
    "coin": "E",
    "moneyRecognition": "E"
  },
  {
    "bankId": "6003",
    "city": "01",
    "district": "Ceyhan",
    "address": "Esentepe Mah. Sanayı Cd. No: 8",
    "longitude": 35.81848,
    "latitude": 37.042114,
    "type": "ATM",
    "neighborhood": "İnönü Mh.",
    "single": "H",
    "onsite": "Onsite",
    "access": "",
    "serviceType": "",
    "salary": null,
    "barcodeReader": "H",
    "coin": "E",
    "moneyRecognition": "E"
  },
  {
    "bankId": "6003",
    "city": "01",
    "district": "Ceyhan",
    "address": "Cumhurıyet Mah. Atatürk Cd. No: 222",
    "longitude": 35.812073,
    "latitude": 37.02771,
    "type": "ATM",
    "neighborhood": "Konakoğlu Mh.",
    "single": "H",
    "onsite": "Onsite",
    "access": "",
    "serviceType": "",
    "salary": null,
    "barcodeReader": "H",
    "coin": "E",
    "moneyRecognition": "E"
  },
  {
    "bankId": "6003",
    "city": "01",
    "district": "Çukurova",
    "address": "Beledıye Evlerı Mah. Çoban Yurtçu Cd. 84029 Sk. No: 2 / 1",
    "longitude": 35.260925,
    "latitude": 37.0343,
    "type": "ATM",
    "neighborhood": "Belediye Evleri Mh.",
    "single": "H",
    "onsite": "Onsite",
    "access": "",
    "serviceType": "",
    "salary": null,
    "barcodeReader": "H",
    "coin": "E",
    "moneyRecognition": "E"
  },
  {
    "bankId": "6003",
    "city": "01",
    "district": "Çukurova",
    "address": "Beledıye Evlerı Mah. Hımı Kürklü Bulvarı No:32 Çukurova/Adana",
    "longitude": 35.267292,
    "latitude": 37.033806,
    "type": "ATM",
    "neighborhood": "Belediye Evleri Mh.",
    "single": "H",
    "onsite": "Onsite",
    "access": "",
    "serviceType": "",
    "salary": null,
    "barcodeReader": "H",
    "coin": "E",
    "moneyRecognition": "E"
  },
  {
    "bankId": "6003",
    "city": "01",
    "district": "Çukurova",
    "address": "Belediye Evleri Mahallesi Turgut Özal Bulvarı Kültür Apartmanı Zemin Kat No 249/D  Çukurova /Adana",
    "longitude": 35.26136,
    "latitude": 37.050617,
    "type": "ATM",
    "neighborhood": "Belediye Evleri Mh.",
    "single": "H",
    "onsite": "Onsite",
    "access": "",
    "serviceType": "",
    "salary": null,
    "barcodeReader": "H",
    "coin": "E",
    "moneyRecognition": "E"
  },
  {
    "bankId": "6003",
    "city": "01",
    "district": "Çukurova",
    "address": "Güzelyalı Mah. Süleyman Demırel Cad. No: 58/1",
    "longitude": 35.288086,
    "latitude": 37.049927,
    "type": "ATM",
    "neighborhood": "Güzelyalı Mh.",
    "single": "H",
    "onsite": "Onsite",
    "access": "",
    "serviceType": "",
    "salary": null,
    "barcodeReader": "H",
    "coin": "E",
    "moneyRecognition": "E"
  },
  {
    "bankId": "6003",
    "city": "01",
    "district": "Çukurova",
    "address": "Huzurevlerı Mah. Türkmenbası Cd. No: 54 / 1",
    "longitude": 35.27948,
    "latitude": 37.04071,
    "type": "ATM",
    "neighborhood": "Huzurevleri Mh.",
    "single": "H",
    "onsite": "Onsite",
    "access": "",
    "serviceType": "",
    "salary": null,
    "barcodeReader": "H",
    "coin": "E",
    "moneyRecognition": "E"
  },
  {
    "bankId": "6003",
    "city": "01",
    "district": "Çukurova",
    "address": "Kurttepe Mah. Süleyman Demırel Cd. No: 53 / 3",
    "longitude": 35.272278,
    "latitude": 37.052124,
    "type": "ATM",
    "neighborhood": "Huzurevleri Mh.",
    "single": "H",
    "onsite": "Onsite",
    "access": "",
    "serviceType": "",
    "salary": null,
    "barcodeReader": "H",
    "coin": "E",
    "moneyRecognition": "E"
  },
  {
    "bankId": "6003",
    "city": "01",
    "district": "Çukurova",
    "address": "Mahfesığmaz Mahallesi Adnan Kahveci Bulvarı No:2/A Çukurova Adana",
    "longitude": 35.309784,
    "latitude": 37.032085,
    "type": "ATM",
    "neighborhood": "Mahfesığmaz Mh.",
    "single": "H",
    "onsite": "Onsite",
    "access": "",
    "serviceType": "",
    "salary": null,
    "barcodeReader": "H",
    "coin": "E",
    "moneyRecognition": "E"
  },
  {
    "bankId": "6003",
    "city": "01",
    "district": "Çukurova",
    "address": "Toros Mah. Barış Manço Bulvarı Özburcu Apt. No.7 Çukurova",
    "longitude": 35.297913,
    "latitude": 37.04651,
    "type": "ATM",
    "neighborhood": "Toros Mh.",
    "single": "H",
    "onsite": "Onsite",
    "access": "",
    "serviceType": "",
    "salary": null,
    "barcodeReader": "H",
    "coin": "E",
    "moneyRecognition": "E"
  },
  {
    "bankId": "6003",
    "city": "01",
    "district": "Çukurova",
    "address": "Toros Mah. Barış Manço Bulvarı Özburcu Apt. No.7 Çukurova",
    "longitude": 35.297913,
    "latitude": 37.04651,
    "type": "ATM",
    "neighborhood": "Toros Mh.",
    "single": "H",
    "onsite": "Onsite",
    "access": "",
    "serviceType": "",
    "salary": null,
    "barcodeReader": "H",
    "coin": "E",
    "moneyRecognition": "E"
  },
  {
    "bankId": "6003",
    "city": "01",
    "district": "Çukurova",
    "address": "Toros Mah. Barış Manço Cad. No: 7/A Çukurova / Adana",
    "longitude": 35.29801,
    "latitude": 37.04649,
    "type": "ATM",
    "neighborhood": "Toros Mh.",
    "single": "H",
    "onsite": "Onsite",
    "access": "",
    "serviceType": "",
    "salary": null,
    "barcodeReader": "H",
    "coin": "E",
    "moneyRecognition": "E"
  },
  {
    "bankId": "6003",
    "city": "01",
    "district": "Çukurova",
    "address": "Yurt Mah. Kasım Ener Cd. No: 19 / G",
    "longitude": 35.293667,
    "latitude": 37.03593,
    "type": "ATM",
    "neighborhood": "Yurt Mh.",
    "single": "H",
    "onsite": "Onsite",
    "access": "",
    "serviceType": "",
    "salary": null,
    "barcodeReader": "H",
    "coin": "E",
    "moneyRecognition": "E"
  },
  {
    "bankId": "6003",
    "city": "01",
    "district": "Çukurova",
    "address": "100.Yıl Mh.Hacı Bektaş Veli Bul.Çevikler Plaza A Blok No:28 Çukurova/Adana",
    "longitude": 35.25123,
    "latitude": 37.04176,
    "type": "ATM",
    "neighborhood": "Yüzüncüyıl Mh.",
    "single": "H",
    "onsite": "Onsite",
    "access": "",
    "serviceType": "",
    "salary": null,
    "barcodeReader": "H",
    "coin": "E",
    "moneyRecognition": "E"
  },
  {
    "bankId": "6003",
    "city": "01",
    "district": "Çukurova",
    "address": "Yüzüncüyıl Mah. Dr.Sadık Ahmet Cd. No: 56 / 1",
    "longitude": 35.2467,
    "latitude": 37.0462,
    "type": "ATM",
    "neighborhood": "Yüzüncüyıl Mh.",
    "single": "H",
    "onsite": "Onsite",
    "access": "",
    "serviceType": "",
    "salary": null,
    "barcodeReader": "H",
    "coin": "E",
    "moneyRecognition": "E"
  },
  {
    "bankId": "6003",
    "city": "01",
    "district": "Feke",
    "address": "İslam Mah. Sıtkı Toksoy Cad. No.3 01660 Feke",
    "longitude": 35.9115,
    "latitude": 37.815125,
    "type": "ATM",
    "neighborhood": "İslam Mh.",
    "single": "H",
    "onsite": "Onsite",
    "access": "",
    "serviceType": "",
    "salary": null,
    "barcodeReader": "H",
    "coin": "E",
    "moneyRecognition": "E"
  },
  {
    "bankId": "6003",
    "city": "01",
    "district": "İmamoğlu",
    "address": "Cumhurıyet Mah. Adnan Menderes Cd. No.63/A 01700 İmamoğlu",
    "longitude": 35.661316,
    "latitude": 37.259277,
    "type": "ATM",
    "neighborhood": "Adalet Mh.",
    "single": "H",
    "onsite": "Onsite",
    "access": "",
    "serviceType": "",
    "salary": null,
    "barcodeReader": "H",
    "coin": "E",
    "moneyRecognition": "E"
  },
  {
    "bankId": "6003",
    "city": "01",
    "district": "İmamoğlu",
    "address": "Cumhuriyet Mah. Adnan Menderes Cd. No:33 İmamoğlu / Adana",
    "longitude": 35.661186,
    "latitude": 37.25927,
    "type": "ATM",
    "neighborhood": "Cumhuriyet Mh.",
    "single": "H",
    "onsite": "Onsite",
    "access": "",
    "serviceType": "",
    "salary": null,
    "barcodeReader": "H",
    "coin": "E",
    "moneyRecognition": "E"
  },
  {
    "bankId": "6003",
    "city": "01",
    "district": "Karaisalı",
    "address": "Selampınar Mahallesi Cumhuriyet Caddesi No: 10  Karaisalı /Adana",
    "longitude": 35.059376,
    "latitude": 37.2555,
    "type": "ATM",
    "neighborhood": "Selampınar Mh.",
    "single": "H",
    "onsite": "Onsite",
    "access": "",
    "serviceType": "",
    "salary": null,
    "barcodeReader": "H",
    "coin": "E",
    "moneyRecognition": "E"
  },
  {
    "bankId": "6003",
    "city": "01",
    "district": "Karataş",
    "address": "Yenı Mah.Atatürk Cad. No:20 01900 Karataş",
    "longitude": 35.38452,
    "latitude": 36.565308,
    "type": "ATM",
    "neighborhood": "Yeni Mh.",
    "single": "H",
    "onsite": "Onsite",
    "access": "",
    "serviceType": "",
    "salary": null,
    "barcodeReader": "H",
    "coin": "E",
    "moneyRecognition": "E"
  },
  {
    "bankId": "6003",
    "city": "01",
    "district": "Kozan",
    "address": "Cumhuriyet Mah. Emniyet Sk.No.6 01500 Kozan",
    "longitude": 35.818115,
    "latitude": 37.44452,
    "type": "ATM",
    "neighborhood": "Arslanpaşa Mh.",
    "single": "H",
    "onsite": "Onsite",
    "access": "",
    "serviceType": "",
    "salary": null,
    "barcodeReader": "H",
    "coin": "E",
    "moneyRecognition": "E"
  },
  {
    "bankId": "6003",
    "city": "01",
    "district": "Kozan",
    "address": "Karacaoğlan Mah. Alpurungu Sok.Onurhan Apt. Zemın Katno:1/A Kozan /Adana",
    "longitude": 35.814346,
    "latitude": 37.460052,
    "type": "ATM",
    "neighborhood": "Karacaoğlan Mh.",
    "single": "H",
    "onsite": "Onsite",
    "access": "",
    "serviceType": "",
    "salary": null,
    "barcodeReader": "H",
    "coin": "E",
    "moneyRecognition": "E"
  },
  {
    "bankId": "6003",
    "city": "01",
    "district": "Kozan",
    "address": "Karacaoğlan Mah. Turgut Özel Bulvarı 115/5 Kozan Adana",
    "longitude": 35.816837,
    "latitude": 37.45882,
    "type": "ATM",
    "neighborhood": "Karacaoğlan Mh.",
    "single": "H",
    "onsite": "Offsite",
    "access": "",
    "serviceType": "",
    "salary": null,
    "barcodeReader": "H",
    "coin": "E",
    "moneyRecognition": "E"
  },
  {
    "bankId": "6003",
    "city": "01",
    "district": "Kozan",
    "address": "Türkelı Mah. Saımbeylı Cd. 255/A Kozan Adana",
    "longitude": 35.824192,
    "latitude": 37.460835,
    "type": "ATM",
    "neighborhood": "Türkeli Mh.",
    "single": "H",
    "onsite": "Onsite",
    "access": "",
    "serviceType": "",
    "salary": null,
    "barcodeReader": "H",
    "coin": "E",
    "moneyRecognition": "E"
  },
  {
    "bankId": "6003",
    "city": "01",
    "district": "Kozan",
    "address": "Varsaklar Mah. Tufanbeyli Blv. No:31 Kozan / Adana",
    "longitude": 35.796955,
    "latitude": 37.448135,
    "type": "ATM",
    "neighborhood": "Varsaklar Mh.",
    "single": "H",
    "onsite": "Onsite",
    "access": "",
    "serviceType": "",
    "salary": null,
    "barcodeReader": "H",
    "coin": "E",
    "moneyRecognition": "E"
  },
  {
    "bankId": "6003",
    "city": "01",
    "district": "Pozantı",
    "address": "Cumhurıyet Mh.Atatürk Cd.No.51 01470 Pozantı",
    "longitude": 34.87254,
    "latitude": 37.423428,
    "type": "ATM",
    "neighborhood": "Cumhuriyet Mh.",
    "single": "H",
    "onsite": "Onsite",
    "access": "",
    "serviceType": "",
    "salary": null,
    "barcodeReader": "H",
    "coin": "E",
    "moneyRecognition": "E"
  },
  {
    "bankId": "6003",
    "city": "01",
    "district": "Sarıçam",
    "address": "Organize Sanayi Mh Turgut Özal Bul.No:6 Sarıçam/Adana",
    "longitude": 35.598225,
    "latitude": 36.97249,
    "type": "ATM",
    "neighborhood": "Acıdere Osb.",
    "single": "H",
    "onsite": "Onsite",
    "access": "",
    "serviceType": "",
    "salary": null,
    "barcodeReader": "H",
    "coin": "E",
    "moneyRecognition": "E"
  },
  {
    "bankId": "6003",
    "city": "01",
    "district": "Sarıçam",
    "address": "Çınarlı Mahallesı 4600 Sk No:5 Çukurova Ünıversıtesı Kampus Içı",
    "longitude": 35.357727,
    "latitude": 37.057922,
    "type": "ATM",
    "neighborhood": "Balcalı Mh.",
    "single": "H",
    "onsite": "Onsite",
    "access": "",
    "serviceType": "",
    "salary": null,
    "barcodeReader": "H",
    "coin": "E",
    "moneyRecognition": "E"
  },
  {
    "bankId": "6003",
    "city": "01",
    "district": "Sarıçam",
    "address": "Osmangazi Mahallesi 2008 Sokak No.3 Toki İş Merkezi  Sarıçam/Adana",
    "longitude": 35.40696,
    "latitude": 37.069965,
    "type": "ATM",
    "neighborhood": "Çınarlı Mh.",
    "single": "H",
    "onsite": "Onsite",
    "access": "",
    "serviceType": "",
    "salary": null,
    "barcodeReader": "H",
    "coin": "E",
    "moneyRecognition": "E"
  },
  {
    "bankId": "6003",
    "city": "01",
    "district": "Sarıçam",
    "address": "Mehmet Akif Ersoy Mahallesi Prf. Necmettin Erbakan Bulvarı No:46/A Altunbaş Plaza Zemin Kat 5-6 01262 Sarıçam/Adana",
    "longitude": 35.39854,
    "latitude": 37.017815,
    "type": "ATM",
    "neighborhood": "Mehmet Akif Ersoy Mh.",
    "single": "H",
    "onsite": "Onsite",
    "access": "",
    "serviceType": "",
    "salary": null,
    "barcodeReader": "H",
    "coin": "E",
    "moneyRecognition": "E"
  },
  {
    "bankId": "6003",
    "city": "01",
    "district": "Sarıçam",
    "address": "Mehmet Akif Ersoy Mahallesi Prf. Necmettin Erbakan Bulvarı No:46/A Altunbaş Plaza Zemin Kat 5-6 01262 Sarıçam/Adana",
    "longitude": 35.39854,
    "latitude": 37.017815,
    "type": "ATM",
    "neighborhood": "Mehmet Akif Ersoy Mh.",
    "single": "H",
    "onsite": "Onsite",
    "access": "",
    "serviceType": "",
    "salary": null,
    "barcodeReader": "H",
    "coin": "E",
    "moneyRecognition": "E"
  },
  {
    "bankId": "6003",
    "city": "01",
    "district": "Sarıçam",
    "address": "Kozan Caddesi",
    "longitude": 35.4063,
    "latitude": 37.0303,
    "type": "ATM",
    "neighborhood": "Yeşiltepe Mh.",
    "single": "H",
    "onsite": "Onsite",
    "access": "",
    "serviceType": "",
    "salary": null,
    "barcodeReader": "H",
    "coin": "E",
    "moneyRecognition": "E"
  },
  {
    "bankId": "6003",
    "city": "01",
    "district": "Seyhan",
    "address": "Akkapı Mah. Şıh Cemil Cad. No:105 Seyhan / Adana",
    "longitude": 35.31159,
    "latitude": 36.966553,
    "type": "ATM",
    "neighborhood": "Akkapı Mh.",
    "single": "H",
    "onsite": "Onsite",
    "access": "",
    "serviceType": "",
    "salary": null,
    "barcodeReader": "H",
    "coin": "E",
    "moneyRecognition": "E"
  },
  {
    "bankId": "6003",
    "city": "01",
    "district": "Seyhan",
    "address": "Bahçeşehır Mahallesı, Mehmet Fuat Dıblan Cd No:159, 01200 Seyhan/Adana",
    "longitude": 35.239548,
    "latitude": 37.028633,
    "type": "ATM",
    "neighborhood": "Bahçeşehir Mh.",
    "single": "H",
    "onsite": "Onsite",
    "access": "",
    "serviceType": "",
    "salary": null,
    "barcodeReader": "H",
    "coin": "E",
    "moneyRecognition": "E"
  },
  {
    "bankId": "6003",
    "city": "01",
    "district": "Seyhan",
    "address": "Bey Mah. 16142 Sk. No:1 Seyhan/Adana",
    "longitude": 35.313076,
    "latitude": 36.957714,
    "type": "ATM",
    "neighborhood": "Bey Mh.",
    "single": "H",
    "onsite": "Onsite",
    "access": "",
    "serviceType": "",
    "salary": null,
    "barcodeReader": "H",
    "coin": "E",
    "moneyRecognition": "E"
  },
  {
    "bankId": "6003",
    "city": "01",
    "district": "Seyhan",
    "address": "Fatıh Mah. Mücahıtler Cd. No: 253 / C",
    "longitude": 35.295753,
    "latitude": 37.01986,
    "type": "ATM",
    "neighborhood": "Fatih Mh.",
    "single": "H",
    "onsite": "Onsite",
    "access": "",
    "serviceType": "",
    "salary": null,
    "barcodeReader": "H",
    "coin": "E",
    "moneyRecognition": "E"
  },
  {
    "bankId": "6003",
    "city": "01",
    "district": "Seyhan",
    "address": "Gürselpaşa Mahallesi Aliya İzzet Begoviç Bulvarı No:45/4 Seyhan/Adana",
    "longitude": 35.266045,
    "latitude": 37.021122,
    "type": "ATM",
    "neighborhood": "Gürselpaşa Mh.",
    "single": "H",
    "onsite": "Offsite",
    "access": "",
    "serviceType": "",
    "salary": null,
    "barcodeReader": "H",
    "coin": "E",
    "moneyRecognition": "E"
  },
  {
    "bankId": "6003",
    "city": "01",
    "district": "Seyhan",
    "address": "Gürselpaşa Mahallesi Aliya İzzet Begoviç Bulvarı No:93/D Seyhan/Adana",
    "longitude": 35.27922,
    "latitude": 37.0228,
    "type": "ATM",
    "neighborhood": "Gürselpaşa Mh.",
    "single": "H",
    "onsite": "Onsite",
    "access": "",
    "serviceType": "",
    "salary": null,
    "barcodeReader": "H",
    "coin": "E",
    "moneyRecognition": "E"
  },
  {
    "bankId": "6003",
    "city": "01",
    "district": "Seyhan",
    "address": "Gürselpaşa Mahallesi Aliya İzzet Begoviç Bulvarı No:93/D Seyhan/Adana",
    "longitude": 35.27922,
    "latitude": 37.0228,
    "type": "ATM",
    "neighborhood": "Gürselpaşa Mh.",
    "single": "H",
    "onsite": "Onsite",
    "access": "",
    "serviceType": "",
    "salary": null,
    "barcodeReader": "H",
    "coin": "E",
    "moneyRecognition": "E"
  },
  {
    "bankId": "6003",
    "city": "01",
    "district": "Seyhan",
    "address": "Saydam Cad. No:113/B",
    "longitude": 35.32394,
    "latitude": 36.97871,
    "type": "ATM",
    "neighborhood": "Hürriyet Mh.",
    "single": "H",
    "onsite": "Onsite",
    "access": "",
    "serviceType": "",
    "salary": null,
    "barcodeReader": "H",
    "coin": "E",
    "moneyRecognition": "E"
  },
  {
    "bankId": "6003",
    "city": "01",
    "district": "Seyhan",
    "address": "Kurtuluş Mah. 64019 Sokak No:1 Seyhan / Adana",
    "longitude": 35.320084,
    "latitude": 37.002316,
    "type": "ATM",
    "neighborhood": "Kurtuluş Mh.",
    "single": "H",
    "onsite": "Onsite",
    "access": "",
    "serviceType": "",
    "salary": null,
    "barcodeReader": "H",
    "coin": "E",
    "moneyRecognition": "E"
  },
  {
    "bankId": "6003",
    "city": "01",
    "district": "Seyhan",
    "address": "Kurtuluş Mah. Atatürk Cad. No.77 01121 Adana.",
    "longitude": 35.320312,
    "latitude": 37.00293,
    "type": "ATM",
    "neighborhood": "Kurtuluş Mh.",
    "single": "H",
    "onsite": "Onsite",
    "access": "",
    "serviceType": "",
    "salary": null,
    "barcodeReader": "H",
    "coin": "E",
    "moneyRecognition": "E"
  },
  {
    "bankId": "6003",
    "city": "01",
    "district": "Seyhan",
    "address": "Meydan Mah. Bakım Yurdu Cad. Barış Parkı 271/3 Seyhan / Adana",
    "longitude": 35.300594,
    "latitude": 36.987263,
    "type": "ATM",
    "neighborhood": "Meydan Mh.",
    "single": "H",
    "onsite": "Offsite",
    "access": "",
    "serviceType": "",
    "salary": null,
    "barcodeReader": "H",
    "coin": "E",
    "moneyRecognition": "E"
  },
  {
    "bankId": "6003",
    "city": "01",
    "district": "Seyhan",
    "address": "Meydan Mah. Meydan Cd. No:46 Seyhan/Adana",
    "longitude": 35.309784,
    "latitude": 36.983524,
    "type": "ATM",
    "neighborhood": "Meydan Mh.",
    "single": "H",
    "onsite": "Onsite",
    "access": "",
    "serviceType": "",
    "salary": null,
    "barcodeReader": "H",
    "coin": "E",
    "moneyRecognition": "E"
  },
  {
    "bankId": "6003",
    "city": "01",
    "district": "Seyhan",
    "address": "Onur Mah. Turhan Cemal Beriker Bulv. Kiza İş Mrk. A3 Blk No : 437 D:999 Seyhan / Adana",
    "longitude": 35.25749,
    "latitude": 36.99627,
    "type": "ATM",
    "neighborhood": "Onur Mh.",
    "single": "H",
    "onsite": "Onsite",
    "access": "",
    "serviceType": "",
    "salary": null,
    "barcodeReader": "H",
    "coin": "E",
    "moneyRecognition": "E"
  },
  {
    "bankId": "6003",
    "city": "01",
    "district": "Seyhan",
    "address": "Onur Mah. Turhan Cemal Beriker Bulv. Kiza İş Mrk. A3 Blk No : 437 D:999 Seyhan / Adana",
    "longitude": 35.25749,
    "latitude": 36.99627,
    "type": "ATM",
    "neighborhood": "Onur Mh.",
    "single": "H",
    "onsite": "Onsite",
    "access": "",
    "serviceType": "",
    "salary": null,
    "barcodeReader": "H",
    "coin": "E",
    "moneyRecognition": "E"
  },
  {
    "bankId": "6003",
    "city": "01",
    "district": "Seyhan",
    "address": "Söğütlü Mahallesi, Şehitlik Caddesi No:47/A  Seyhan/Adana",
    "longitude": 35.20747,
    "latitude": 37.00143,
    "type": "ATM",
    "neighborhood": "Söğütlü Mh.",
    "single": "H",
    "onsite": "Onsite",
    "access": "",
    "serviceType": "",
    "salary": null,
    "barcodeReader": "H",
    "coin": "E",
    "moneyRecognition": "E"
  },
  {
    "bankId": "6003",
    "city": "01",
    "district": "Seyhan",
    "address": "Sümer Mahallesı , 69083 Sokak No:6",
    "longitude": 35.31283,
    "latitude": 37.026703,
    "type": "ATM",
    "neighborhood": "Sümer Mh.",
    "single": "H",
    "onsite": "Onsite",
    "access": "",
    "serviceType": "",
    "salary": null,
    "barcodeReader": "H",
    "coin": "E",
    "moneyRecognition": "E"
  },
  {
    "bankId": "6003",
    "city": "01",
    "district": "Seyhan",
    "address": "Fatıh Mah. Mücahıtler Cd. No: 253 / C",
    "longitude": 35.295715,
    "latitude": 37.02008,
    "type": "ATM",
    "neighborhood": "Tellidere Mh.",
    "single": "H",
    "onsite": "Onsite",
    "access": "",
    "serviceType": "",
    "salary": null,
    "barcodeReader": "H",
    "coin": "E",
    "moneyRecognition": "E"
  },
  {
    "bankId": "6003",
    "city": "01",
    "district": "Seyhan",
    "address": "Tepebağ Mah. İnönü Cd. No.29 01011 Adana",
    "longitude": 35.3291,
    "latitude": 36.98993,
    "type": "ATM",
    "neighborhood": "Tepebağ Mh.",
    "single": "H",
    "onsite": "Onsite",
    "access": "",
    "serviceType": "",
    "salary": null,
    "barcodeReader": "H",
    "coin": "E",
    "moneyRecognition": "E"
  },
  {
    "bankId": "6003",
    "city": "01",
    "district": "Seyhan",
    "address": "Yeni Baraj Mah. Hastaneler Mevki Seyhan Devlet Hastanesi Seyhan Adana",
    "longitude": 35.318718,
    "latitude": 37.01977,
    "type": "ATM",
    "neighborhood": "Yenibaraj Mh.",
    "single": "H",
    "onsite": "Offsite",
    "access": "",
    "serviceType": "",
    "salary": null,
    "barcodeReader": "H",
    "coin": "E",
    "moneyRecognition": "E"
  },
  {
    "bankId": "6003",
    "city": "01",
    "district": "Seyhan",
    "address": "Yeşiloba Mah. Fatma Esma Nayman Cad.46003 Sk.28/3 Seyhan/Adana (Mesleki Eğitim Merkezi Önü)",
    "longitude": 35.256443,
    "latitude": 36.990242,
    "type": "ATM",
    "neighborhood": "Yeşiloba Mh.",
    "single": "H",
    "onsite": "Offsite",
    "access": "",
    "serviceType": "",
    "salary": null,
    "barcodeReader": "H",
    "coin": "E",
    "moneyRecognition": "E"
  },
  {
    "bankId": "6003",
    "city": "01",
    "district": "Seyhan",
    "address": "Yesılyurt Mah. Ibo Osman Cd. No: 10 / A",
    "longitude": 35.312683,
    "latitude": 37.02008,
    "type": "ATM",
    "neighborhood": "Yeşilyurt Mh.",
    "single": "H",
    "onsite": "Onsite",
    "access": "",
    "serviceType": "",
    "salary": null,
    "barcodeReader": "H",
    "coin": "E",
    "moneyRecognition": "E"
  },
  {
    "bankId": "6003",
    "city": "01",
    "district": "Seyhan",
    "address": "Yeşilyurt Mahallesi, İbo Osman Cad",
    "longitude": 35.31275,
    "latitude": 37.020035,
    "type": "ATM",
    "neighborhood": "Yeşilyurt Mh.",
    "single": "H",
    "onsite": "Onsite",
    "access": "",
    "serviceType": "",
    "salary": null,
    "barcodeReader": "H",
    "coin": "E",
    "moneyRecognition": "E"
  },
  {
    "bankId": "6003",
    "city": "01",
    "district": "Seyhan",
    "address": "Yeşilyurt Mh.Ahmet Sapmaz Bul.Ata Plaza No:16/F Seyhan/Adana",
    "longitude": 35.299286,
    "latitude": 37.02888,
    "type": "ATM",
    "neighborhood": "Yeşilyurt Mh.",
    "single": "H",
    "onsite": "Onsite",
    "access": "",
    "serviceType": "",
    "salary": null,
    "barcodeReader": "H",
    "coin": "E",
    "moneyRecognition": "E"
  },
  {
    "bankId": "6003",
    "city": "01",
    "district": "Yumurtalık",
    "address": "Ayas Mh.Hüseyin Baykara Cd.No:38 Yumurtalık/Adana",
    "longitude": 35.789062,
    "latitude": 36.76694,
    "type": "ATM",
    "neighborhood": "Ayas Mh.",
    "single": "H",
    "onsite": "Onsite",
    "access": "",
    "serviceType": "",
    "salary": null,
    "barcodeReader": "H",
    "coin": "E",
    "moneyRecognition": "E"
  },
  {
    "bankId": "6003",
    "city": "01",
    "district": "Yumurtalık",
    "address": "Ayaş Mahallesı, Hüseyın Baykara Cad. No:38",
    "longitude": 35.78916,
    "latitude": 36.76711,
    "type": "ATM",
    "neighborhood": "Ayas Mh.",
    "single": "H",
    "onsite": "Onsite",
    "access": "",
    "serviceType": "",
    "salary": null,
    "barcodeReader": "H",
    "coin": "E",
    "moneyRecognition": "E"
  },
  {
    "bankId": "6003",
    "city": "01",
    "district": "Yüreğir",
    "address": "Akıncılar Mah. Orhan Kemal Bulvarı Çeşme Durağı",
    "longitude": 35.3522,
    "latitude": 36.9976,
    "type": "ATM",
    "neighborhood": "Akıncılar Mh.",
    "single": "H",
    "onsite": "Onsite",
    "access": "",
    "serviceType": "",
    "salary": null,
    "barcodeReader": "H",
    "coin": "E",
    "moneyRecognition": "E"
  },
  {
    "bankId": "6003",
    "city": "01",
    "district": "Yüreğir",
    "address": "Sınanpaşa Mah. Kozan Cad. Yüreğır İş Merkezı No:105/D Yüreğır Adana",
    "longitude": 35.351673,
    "latitude": 36.99376,
    "type": "ATM",
    "neighborhood": "Akıncılar Mh.",
    "single": "H",
    "onsite": "Onsite",
    "access": "",
    "serviceType": "",
    "salary": null,
    "barcodeReader": "H",
    "coin": "E",
    "moneyRecognition": "E"
  },
  {
    "bankId": "6003",
    "city": "01",
    "district": "Yüreğir",
    "address": "Atakent Mah. Yaşar Doğu Cad. No:77 D:1 Yüreğır/Adana",
    "longitude": 35.3685,
    "latitude": 36.9974,
    "type": "ATM",
    "neighborhood": "Atakent Mh.",
    "single": "H",
    "onsite": "Onsite",
    "access": "",
    "serviceType": "",
    "salary": null,
    "barcodeReader": "H",
    "coin": "E",
    "moneyRecognition": "E"
  },
  {
    "bankId": "6003",
    "city": "01",
    "district": "Yüreğir",
    "address": "Bahçelievler Mah. Süleyman Vahit Cad. No:330 Yüreğir / Adana",
    "longitude": 35.355392,
    "latitude": 36.974243,
    "type": "ATM",
    "neighborhood": "Bahçelievler Mh.",
    "single": "H",
    "onsite": "Onsite",
    "access": "",
    "serviceType": "",
    "salary": null,
    "barcodeReader": "H",
    "coin": "E",
    "moneyRecognition": "E"
  },
  {
    "bankId": "6003",
    "city": "01",
    "district": "Yüreğir",
    "address": "Dadaloğlu Mahallesı Yüreğır Başkent Hastanesı Önü",
    "longitude": 35.36303,
    "latitude": 37.004402,
    "type": "ATM",
    "neighborhood": "Dadaloğlu Mh.",
    "single": "H",
    "onsite": "Onsite",
    "access": "",
    "serviceType": "",
    "salary": null,
    "barcodeReader": "H",
    "coin": "E",
    "moneyRecognition": "E"
  },
  {
    "bankId": "6003",
    "city": "01",
    "district": "Yüreğir",
    "address": "Adana Doğankent Gaziosmanpaşa Mah. Karataş Bulvarı",
    "longitude": 35.336086,
    "latitude": 36.844624,
    "type": "ATM",
    "neighborhood": "Doğankent Bahçelievler Mh.",
    "single": "H",
    "onsite": "Onsite",
    "access": "",
    "serviceType": "",
    "salary": null,
    "barcodeReader": "H",
    "coin": "E",
    "moneyRecognition": "E"
  },
  {
    "bankId": "6003",
    "city": "01",
    "district": "Yüreğir",
    "address": "Güzelevler Mah. Palmiye Cad. No:3/A  Yüreğir/Adana",
    "longitude": 35.398018,
    "latitude": 36.974884,
    "type": "ATM",
    "neighborhood": "Güzelevler Mh.",
    "single": "H",
    "onsite": "Onsite",
    "access": "",
    "serviceType": "",
    "salary": null,
    "barcodeReader": "H",
    "coin": "E",
    "moneyRecognition": "E"
  },
  {
    "bankId": "6003",
    "city": "01",
    "district": "Yüreğir",
    "address": "Kazım Karabekir Mah. Mustafa Kemla Paşa Bulv. Otabüs İşl. Önü 83/3 Yüreğir Adana",
    "longitude": 35.348442,
    "latitude": 37.00696,
    "type": "ATM",
    "neighborhood": "Kazım Karabekir Mh.",
    "single": "H",
    "onsite": "Offsite",
    "access": "",
    "serviceType": "",
    "salary": null,
    "barcodeReader": "H",
    "coin": "E",
    "moneyRecognition": "E"
  },
  {
    "bankId": "6003",
    "city": "01",
    "district": "Yüreğir",
    "address": "Kışla Mh. Şehır Hastanesı Yüreğır/Adana",
    "longitude": 35.34782,
    "latitude": 37.029522,
    "type": "ATM",
    "neighborhood": "Kışla Mh.",
    "single": "H",
    "onsite": "Offsite",
    "access": "",
    "serviceType": "",
    "salary": null,
    "barcodeReader": "H",
    "coin": "E",
    "moneyRecognition": "E"
  },
  {
    "bankId": "6003",
    "city": "01",
    "district": "Yüreğir",
    "address": "Yavuzlar Mah. Orhan Kemal Cd. No: 136 / B",
    "longitude": 35.35791,
    "latitude": 36.986694,
    "type": "ATM",
    "neighborhood": "Özgür Mh.",
    "single": "H",
    "onsite": "Onsite",
    "access": "",
    "serviceType": "",
    "salary": null,
    "barcodeReader": "H",
    "coin": "E",
    "moneyRecognition": "E"
  },
  {
    "bankId": "6003",
    "city": "01",
    "district": "Yüreğir",
    "address": "Selahattin Eyyubi Mah. Kozan Cd.794/Bno: 391/C",
    "longitude": 35.3681,
    "latitude": 37.0045,
    "type": "ATM",
    "neighborhood": "Selahattin Eyyubi Mh.",
    "single": "H",
    "onsite": "Onsite",
    "access": "",
    "serviceType": "",
    "salary": null,
    "barcodeReader": "H",
    "coin": "E",
    "moneyRecognition": "E"
  },
  {
    "bankId": "6003",
    "city": "01",
    "district": "Yüreğir",
    "address": "Selahattin Eyyubi Mah. Kozan Cd.794/Bno: 391/C",
    "longitude": 35.3681,
    "latitude": 37.0045,
    "type": "ATM",
    "neighborhood": "Selahattin Eyyubi Mh.",
    "single": "H",
    "onsite": "Onsite",
    "access": "",
    "serviceType": "",
    "salary": null,
    "barcodeReader": "H",
    "coin": "E",
    "moneyRecognition": "E"
  },
  {
    "bankId": "6003",
    "city": "01",
    "district": "Yüreğir",
    "address": "Selahatttin Eyyubi Mah. Ş.J. Er Mustafa Göksal Cad. No : 62/A Yüreğir / Adana",
    "longitude": 35.364445,
    "latitude": 37.00811,
    "type": "ATM",
    "neighborhood": "Selahattin Eyyubi Mh.",
    "single": "H",
    "onsite": "Onsite",
    "access": "",
    "serviceType": "",
    "salary": null,
    "barcodeReader": "H",
    "coin": "E",
    "moneyRecognition": "E"
  },
  {
    "bankId": "6003",
    "city": "01",
    "district": "Yüreğir",
    "address": "Haydaroğlu Mahallesi Karataş Bul.B2 Blok No:206/2/Z02 Seyhan/Adana",
    "longitude": 35.337204,
    "latitude": 36.96678,
    "type": "ATM",
    "neighborhood": "Seyhan Mh.",
    "single": "H",
    "onsite": "Onsite",
    "access": "",
    "serviceType": "",
    "salary": null,
    "barcodeReader": "H",
    "coin": "E",
    "moneyRecognition": "E"
  },
  {
    "bankId": "6003",
    "city": "01",
    "district": "Yüreğir",
    "address": "Haydaroğlu Mahallesi Karataş Bul.B2 Blok No:206/2/Z02 Seyhan/Adana",
    "longitude": 35.337204,
    "latitude": 36.96678,
    "type": "ATM",
    "neighborhood": "Seyhan Mh.",
    "single": "H",
    "onsite": "Onsite",
    "access": "",
    "serviceType": "",
    "salary": null,
    "barcodeReader": "H",
    "coin": "E",
    "moneyRecognition": "E"
  },
  {
    "bankId": "6003",
    "city": "01",
    "district": "Yüreğir",
    "address": "Sinanpaşa Mh. Optimum Avm Hacı Sabancı Blv. Yüreğir/Adana",
    "longitude": 35.339912,
    "latitude": 36.990967,
    "type": "ATM",
    "neighborhood": "Sinanpaşa Mh.",
    "single": "H",
    "onsite": "Offsite",
    "access": "",
    "serviceType": "",
    "salary": null,
    "barcodeReader": "H",
    "coin": "E",
    "moneyRecognition": "E"
  },
  {
    "bankId": "6003",
    "city": "01",
    "district": "Yüreğir",
    "address": "Solaklı Cumhuriyet Mah. Atatürk Cad. No: 15 Yüreğir / Adana",
    "longitude": 35.335506,
    "latitude": 36.806465,
    "type": "ATM",
    "neighborhood": "Solaklı Cumhuriyet Mh.",
    "single": "H",
    "onsite": "Onsite",
    "access": "",
    "serviceType": "",
    "salary": null,
    "barcodeReader": "H",
    "coin": "E",
    "moneyRecognition": "E"
  },
  {
    "bankId": "6003",
    "city": "01",
    "district": "Yüreğir",
    "address": "Şehıt Erkut Akbay Mh. 2801. Sk. No 100 Yüreğır/Adana",
    "longitude": 35.378315,
    "latitude": 37.0017,
    "type": "ATM",
    "neighborhood": "Şehit Erkut Akbay Mh.",
    "single": "H",
    "onsite": "Onsite",
    "access": "",
    "serviceType": "",
    "salary": null,
    "barcodeReader": "H",
    "coin": "E",
    "moneyRecognition": "E"
  },
  {
    "bankId": "6003",
    "city": "01",
    "district": "Yüreğir",
    "address": "Köprülü Mah. Mustafa Kemal Paşa Bulvarı İl Sağlık Müdürlüğü Önü 8/5 Yüreğir/Adana",
    "longitude": 35.339478,
    "latitude": 37.008743,
    "type": "ATM",
    "neighborhood": "Yavuzlar Mh.",
    "single": "H",
    "onsite": "Offsite",
    "access": "",
    "serviceType": "",
    "salary": null,
    "barcodeReader": "H",
    "coin": "E",
    "moneyRecognition": "E"
  },
  {
    "bankId": "6003",
    "city": "01",
    "district": "Yüreğir",
    "address": "Yenidoğan Mahallesi Sevgi Çiçeği Caddesi No.77 Yüreğir /Adana",
    "longitude": 35.386677,
    "latitude": 36.988537,
    "type": "ATM",
    "neighborhood": "Yenidoğan Mh.",
    "single": "H",
    "onsite": "Onsite",
    "access": "",
    "serviceType": "",
    "salary": null,
    "barcodeReader": "H",
    "coin": "E",
    "moneyRecognition": "E"
  },
  {
    "bankId": "6003",
    "city": "02",
    "district": "Çelikhan",
    "address": "Zafer Mah. Hükümet Cad. No:6",
    "longitude": 38.23828,
    "latitude": 38.032715,
    "type": "ATM",
    "neighborhood": "Cami Mh.",
    "single": "H",
    "onsite": "Onsite",
    "access": "",
    "serviceType": "",
    "salary": null,
    "barcodeReader": "H",
    "coin": "E",
    "moneyRecognition": "E"
  },
  {
    "bankId": "6003",
    "city": "02",
    "district": "Gerger",
    "address": "Merkez Mah. Mustafa Yücel Özbılgın Cad. No:44",
    "longitude": 39.03421,
    "latitude": 38.029198,
    "type": "ATM",
    "neighborhood": "Merkez Mh.",
    "single": "E",
    "onsite": "Onsite",
    "access": "",
    "serviceType": "",
    "salary": null,
    "barcodeReader": "H",
    "coin": "E",
    "moneyRecognition": "E"
  },
  {
    "bankId": "6003",
    "city": "02",
    "district": "Kahta",
    "address": "Atatürk Mahallesi Cumhuriyet Caddesi No:5 Kahta Adıyaman",
    "longitude": 38.620045,
    "latitude": 37.78195,
    "type": "ATM",
    "neighborhood": "Atatürk Mh.",
    "single": "H",
    "onsite": "Onsite",
    "access": "",
    "serviceType": "",
    "salary": null,
    "barcodeReader": "H",
    "coin": "E",
    "moneyRecognition": "E"
  },
  {
    "bankId": "6003",
    "city": "02",
    "district": "Kahta",
    "address": "Karaman Mah. Turgut Özal Cd. No:10",
    "longitude": 38.625122,
    "latitude": 37.784912,
    "type": "ATM",
    "neighborhood": "Fırat Mh.",
    "single": "H",
    "onsite": "Onsite",
    "access": "",
    "serviceType": "",
    "salary": null,
    "barcodeReader": "H",
    "coin": "E",
    "moneyRecognition": "E"
  },
  {
    "bankId": "6003",
    "city": "02",
    "district": "Kahta",
    "address": "Menzil Köyü No:15",
    "longitude": 38.76436,
    "latitude": 37.769062,
    "type": "ATM",
    "neighborhood": "Menzil Köyü",
    "single": "H",
    "onsite": "Onsite",
    "access": "",
    "serviceType": "",
    "salary": null,
    "barcodeReader": "H",
    "coin": "E",
    "moneyRecognition": "E"
  },
  {
    "bankId": "6003",
    "city": "02",
    "district": "Merkez",
    "address": "Altınşehir Mahallesi 3091 Sokak No: 1 Merkez",
    "longitude": 38.2173,
    "latitude": 37.736553,
    "type": "ATM",
    "neighborhood": "Altınşehir Mh.",
    "single": "H",
    "onsite": "Onsite",
    "access": "",
    "serviceType": "",
    "salary": null,
    "barcodeReader": "H",
    "coin": "E",
    "moneyRecognition": "E"
  },
  {
    "bankId": "6003",
    "city": "02",
    "district": "Merkez",
    "address": "Karapınar Mahallesı Türmüz Yolu Numara : 97/A Merkez ? Adıyaman",
    "longitude": 38.25406,
    "latitude": 37.76057,
    "type": "ATM",
    "neighborhood": "Karapınar Mh.",
    "single": "H",
    "onsite": "Onsite",
    "access": "",
    "serviceType": "",
    "salary": null,
    "barcodeReader": "H",
    "coin": "E",
    "moneyRecognition": "E"
  },
  {
    "bankId": "6003",
    "city": "02",
    "district": "Merkez",
    "address": "Ulucami Mah. Gölbaşı Cad. No:117/1 Daire No:75 Balıkesir Çarşısı Merkez/Adıyaman",
    "longitude": 38.26998,
    "latitude": 37.760067,
    "type": "ATM",
    "neighborhood": "Ulucami Mh.",
    "single": "H",
    "onsite": "Onsite",
    "access": "",
    "serviceType": "",
    "salary": null,
    "barcodeReader": "H",
    "coin": "E",
    "moneyRecognition": "E"
  },
  {
    "bankId": "6003",
    "city": "02",
    "district": "Samsat",
    "address": "Yavuzselim Mh. Atatürk Cd. No:39 Samsat / Adıyaman",
    "longitude": 38.48478,
    "latitude": 37.581196,
    "type": "ATM",
    "neighborhood": "Yavuz Selim Mh.",
    "single": "H",
    "onsite": "Onsite",
    "access": "",
    "serviceType": "",
    "salary": null,
    "barcodeReader": "H",
    "coin": "E",
    "moneyRecognition": "E"
  },
  {
    "bankId": "6003",
    "city": "03",
    "district": "Başmakçı",
    "address": "Yenı Mah. İlkokul Cad. No: 22 Başmakçı",
    "longitude": 30.009094,
    "latitude": 37.897705,
    "type": "ATM",
    "neighborhood": "Yeni Mh.",
    "single": "H",
    "onsite": "Onsite",
    "access": "",
    "serviceType": "",
    "salary": null,
    "barcodeReader": "H",
    "coin": "E",
    "moneyRecognition": "E"
  },
  {
    "bankId": "6003",
    "city": "03",
    "district": "Bayat",
    "address": "Büyük Mah.Atatürk Cad. No: 2 Bayat/Afyon",
    "longitude": 30.924316,
    "latitude": 38.981323,
    "type": "ATM",
    "neighborhood": "Büyük Mh.",
    "single": "H",
    "onsite": "Onsite",
    "access": "",
    "serviceType": "",
    "salary": null,
    "barcodeReader": "H",
    "coin": "E",
    "moneyRecognition": "E"
  },
  {
    "bankId": "6003",
    "city": "03",
    "district": "Bolvadin",
    "address": "Emrullah Mah.Eskı Ptt Cad. No: 18 Bolvadın",
    "longitude": 31.048372,
    "latitude": 38.713474,
    "type": "ATM",
    "neighborhood": "Fatih Mh.",
    "single": "H",
    "onsite": "Onsite",
    "access": "",
    "serviceType": "",
    "salary": null,
    "barcodeReader": "H",
    "coin": "E",
    "moneyRecognition": "E"
  },
  {
    "bankId": "6003",
    "city": "03",
    "district": "Bolvadin",
    "address": "Yenice Mah. Burçak Sok. No:42 Bolvadin / Afyonkarahisar",
    "longitude": 31.04272,
    "latitude": 38.71378,
    "type": "ATM",
    "neighborhood": "Yenice Mh.",
    "single": "H",
    "onsite": "Onsite",
    "access": "",
    "serviceType": "",
    "salary": null,
    "barcodeReader": "H",
    "coin": "E",
    "moneyRecognition": "E"
  },
  {
    "bankId": "6003",
    "city": "03",
    "district": "Çay",
    "address": "Vakıf Mah. İnönü Cad. Çay / Afyon",
    "longitude": 31.021664,
    "latitude": 38.592896,
    "type": "ATM",
    "neighborhood": "Şirinevler Mh.",
    "single": "H",
    "onsite": "Onsite",
    "access": "",
    "serviceType": "",
    "salary": null,
    "barcodeReader": "H",
    "coin": "E",
    "moneyRecognition": "E"
  },
  {
    "bankId": "6003",
    "city": "03",
    "district": "Çobanlar",
    "address": "Bucak Mah. Özel İdare Altı Çobanlar",
    "longitude": 30.781677,
    "latitude": 38.700684,
    "type": "ATM",
    "neighborhood": "Işık Mh.",
    "single": "H",
    "onsite": "Onsite",
    "access": "",
    "serviceType": "",
    "salary": null,
    "barcodeReader": "H",
    "coin": "E",
    "moneyRecognition": "E"
  },
  {
    "bankId": "6003",
    "city": "03",
    "district": "Dazkırı",
    "address": "Yeşılyol Mah.Lütfı Sönmez Cad. No: 16 Dazkırı",
    "longitude": 29.861084,
    "latitude": 37.918518,
    "type": "ATM",
    "neighborhood": "Yeniyol Mh.",
    "single": "H",
    "onsite": "Onsite",
    "access": "",
    "serviceType": "",
    "salary": null,
    "barcodeReader": "H",
    "coin": "E",
    "moneyRecognition": "E"
  },
  {
    "bankId": "6003",
    "city": "03",
    "district": "Dinar",
    "address": "Camikebir Mah. Cengiz Topel Cad. No: 10 Dinar",
    "longitude": 30.166687,
    "latitude": 38.066284,
    "type": "ATM",
    "neighborhood": "Adliye Mh.",
    "single": "H",
    "onsite": "Onsite",
    "access": "",
    "serviceType": "",
    "salary": null,
    "barcodeReader": "H",
    "coin": "E",
    "moneyRecognition": "E"
  },
  {
    "bankId": "6003",
    "city": "03",
    "district": "Dinar",
    "address": "Camıkebır Mah. Cengız Topel Cad. No: 10 Dınar",
    "longitude": 30.167467,
    "latitude": 38.067795,
    "type": "ATM",
    "neighborhood": "Camikebir Mh.",
    "single": "H",
    "onsite": "Onsite",
    "access": "",
    "serviceType": "",
    "salary": null,
    "barcodeReader": "H",
    "coin": "E",
    "moneyRecognition": "E"
  },
  {
    "bankId": "6003",
    "city": "03",
    "district": "Dinar",
    "address": "Haydarlı Kasabası",
    "longitude": 30.3847,
    "latitude": 38.261,
    "type": "ATM",
    "neighborhood": "Merkez Mh. (Haydarlı Bld.)",
    "single": "H",
    "onsite": "Onsite",
    "access": "",
    "serviceType": "",
    "salary": null,
    "barcodeReader": "H",
    "coin": "E",
    "moneyRecognition": "E"
  },
  {
    "bankId": "6003",
    "city": "03",
    "district": "Dinar",
    "address": "Yeşılyurt Mah Cumhurıyet Cd. No:4",
    "longitude": 30.496878,
    "latitude": 38.240734,
    "type": "ATM",
    "neighborhood": "Yeşilyurt Mh. (Tatarlı Bld.)",
    "single": "H",
    "onsite": "Onsite",
    "access": "",
    "serviceType": "",
    "salary": null,
    "barcodeReader": "H",
    "coin": "E",
    "moneyRecognition": "E"
  },
  {
    "bankId": "6003",
    "city": "03",
    "district": "Emirdağ",
    "address": "Yenı Mah. Eskışehır Cad. No: 52 Emırdağ",
    "longitude": 31.151672,
    "latitude": 39.02112,
    "type": "ATM",
    "neighborhood": "Yeni Mh.",
    "single": "H",
    "onsite": "Onsite",
    "access": "",
    "serviceType": "",
    "salary": null,
    "barcodeReader": "H",
    "coin": "E",
    "moneyRecognition": "E"
  },
  {
    "bankId": "6003",
    "city": "03",
    "district": "Evciler",
    "address": "Yunus Emre Mah.İstasyon Cad. No: 10 Evcıler",
    "longitude": 29.887512,
    "latitude": 38.040283,
    "type": "ATM",
    "neighborhood": "Yunus Emre Mh.",
    "single": "H",
    "onsite": "Onsite",
    "access": "",
    "serviceType": "",
    "salary": null,
    "barcodeReader": "H",
    "coin": "E",
    "moneyRecognition": "E"
  },
  {
    "bankId": "6003",
    "city": "03",
    "district": "Hocalar",
    "address": "Şafak Mah. Cumhurıyet Cad. No: 54 Hocalar",
    "longitude": 29.967712,
    "latitude": 38.57849,
    "type": "ATM",
    "neighborhood": "Yeni Mh.",
    "single": "H",
    "onsite": "Onsite",
    "access": "",
    "serviceType": "",
    "salary": null,
    "barcodeReader": "H",
    "coin": "E",
    "moneyRecognition": "E"
  },
  {
    "bankId": "6003",
    "city": "03",
    "district": "İhsaniye",
    "address": "Kervansaray Mahallesi, Döğer Köyü Yolu, İhsaniye/Afyonkarahisar",
    "longitude": 30.391903,
    "latitude": 39.12687,
    "type": "ATM",
    "neighborhood": "Kervansaray Mh. (Döğer Bld.)",
    "single": "H",
    "onsite": "Onsite",
    "access": "",
    "serviceType": "",
    "salary": null,
    "barcodeReader": "H",
    "coin": "E",
    "moneyRecognition": "E"
  },
  {
    "bankId": "6003",
    "city": "03",
    "district": "İhsaniye",
    "address": "Hürrıyet Mah. Atatürk Cad. No : 2 İhsanıye",
    "longitude": 30.416504,
    "latitude": 39.031677,
    "type": "ATM",
    "neighborhood": "Zafer Mh.",
    "single": "H",
    "onsite": "Onsite",
    "access": "",
    "serviceType": "",
    "salary": null,
    "barcodeReader": "H",
    "coin": "E",
    "moneyRecognition": "E"
  },
  {
    "bankId": "6003",
    "city": "03",
    "district": "İscehisar",
    "address": "Eskıhamam Mah. Afyon Cad. No : 1 İscehısar",
    "longitude": 30.749878,
    "latitude": 38.86151,
    "type": "ATM",
    "neighborhood": "Fatih Mh.",
    "single": "H",
    "onsite": "Onsite",
    "access": "",
    "serviceType": "",
    "salary": null,
    "barcodeReader": "H",
    "coin": "E",
    "moneyRecognition": "E"
  },
  {
    "bankId": "6003",
    "city": "03",
    "district": "Kızılören",
    "address": "Cumhuriyet Meydanı Cengiz Topel Cad.No:36 Kızılören /Afyon",
    "longitude": 30.152601,
    "latitude": 38.259678,
    "type": "ATM",
    "neighborhood": "Cumhuriyet Mh.",
    "single": "H",
    "onsite": "Onsite",
    "access": "",
    "serviceType": "",
    "salary": null,
    "barcodeReader": "H",
    "coin": "E",
    "moneyRecognition": "E"
  },
  {
    "bankId": "6003",
    "city": "03",
    "district": "Merkez",
    "address": "Osb 1. Cd. No:2 Merkez Afyonkarahısar",
    "longitude": 30.55783,
    "latitude": 38.799286,
    "type": "ATM",
    "neighborhood": "Afyonkarahisar Osb.",
    "single": "H",
    "onsite": "Onsite",
    "access": "",
    "serviceType": "",
    "salary": null,
    "barcodeReader": "H",
    "coin": "E",
    "moneyRecognition": "E"
  },
  {
    "bankId": "6003",
    "city": "03",
    "district": "Merkez",
    "address": "Atatürk Mahallesi Mimar Sinan Caddesi No: 10/1 Işıklar Merkez Afyonkarahisar",
    "longitude": 30.739992,
    "latitude": 38.66558,
    "type": "ATM",
    "neighborhood": "Atatürk Mh. (Işıklar Bld.)",
    "single": "H",
    "onsite": "Onsite",
    "access": "",
    "serviceType": "",
    "salary": null,
    "barcodeReader": "H",
    "coin": "E",
    "moneyRecognition": "E"
  },
  {
    "bankId": "6003",
    "city": "03",
    "district": "Merkez",
    "address": "Cumhurıyet Mah. Bekır Gümüs Cd. No: 8 / 8",
    "longitude": 30.55249,
    "latitude": 38.75348,
    "type": "ATM",
    "neighborhood": "Cumhuriyet Mh.",
    "single": "H",
    "onsite": "Onsite",
    "access": "",
    "serviceType": "",
    "salary": null,
    "barcodeReader": "H",
    "coin": "E",
    "moneyRecognition": "E"
  },
  {
    "bankId": "6003",
    "city": "03",
    "district": "Merkez",
    "address": "D.Pınar Mah. Mıllı Egemenlık Cad.No:25",
    "longitude": 30.53949,
    "latitude": 38.75592,
    "type": "ATM",
    "neighborhood": "Dumlupınar Mh.",
    "single": "H",
    "onsite": "Onsite",
    "access": "",
    "serviceType": "",
    "salary": null,
    "barcodeReader": "H",
    "coin": "E",
    "moneyRecognition": "E"
  },
  {
    "bankId": "6003",
    "city": "03",
    "district": "Merkez",
    "address": "D.Pınar Mah. Mıllı Egemenlık Cad.No:25",
    "longitude": 30.53949,
    "latitude": 38.75592,
    "type": "ATM",
    "neighborhood": "Dumlupınar Mh.",
    "single": "H",
    "onsite": "Onsite",
    "access": "",
    "serviceType": "",
    "salary": null,
    "barcodeReader": "H",
    "coin": "E",
    "moneyRecognition": "E"
  },
  {
    "bankId": "6003",
    "city": "03",
    "district": "Merkez",
    "address": "Dumlupınar Mah. Milliegemenlik Cad. No:11 Afyonkarahisar",
    "longitude": 30.53943,
    "latitude": 38.755703,
    "type": "ATM",
    "neighborhood": "Dumlupınar Mh.",
    "single": "H",
    "onsite": "Onsite",
    "access": "",
    "serviceType": "",
    "salary": null,
    "barcodeReader": "H",
    "coin": "E",
    "moneyRecognition": "E"
  },
  {
    "bankId": "6003",
    "city": "03",
    "district": "Merkez",
    "address": "Kocatepe Üniversitesi Kampüsü Şubesi Ans Kampüs İçi Sosyal Tesisler Merkez Afyonkarahisar",
    "longitude": 30.535366,
    "latitude": 38.81166,
    "type": "ATM",
    "neighborhood": "Erenler Mh.",
    "single": "H",
    "onsite": "Onsite",
    "access": "",
    "serviceType": "",
    "salary": null,
    "barcodeReader": "H",
    "coin": "E",
    "moneyRecognition": "E"
  },
  {
    "bankId": "6003",
    "city": "03",
    "district": "Merkez",
    "address": "Çıkrık Beldesi Erenler Mah. Atatürk Cad. No:4 Afyonkaraisar",
    "longitude": 30.60802,
    "latitude": 38.873276,
    "type": "ATM",
    "neighborhood": "Erenler Mh. (Çıkrık Bld.)",
    "single": "H",
    "onsite": "Offsite",
    "access": "",
    "serviceType": "",
    "salary": null,
    "barcodeReader": "H",
    "coin": "E",
    "moneyRecognition": "E"
  },
  {
    "bankId": "6003",
    "city": "03",
    "district": "Merkez",
    "address": "İstıklal Mah. Adnan Menderes Cad. Lale Sok. No:1",
    "longitude": 30.557922,
    "latitude": 38.736877,
    "type": "ATM",
    "neighborhood": "İstiklal Mh.",
    "single": "H",
    "onsite": "Onsite",
    "access": "",
    "serviceType": "",
    "salary": null,
    "barcodeReader": "H",
    "coin": "E",
    "moneyRecognition": "E"
  },
  {
    "bankId": "6003",
    "city": "03",
    "district": "Merkez",
    "address": "İstiklal Mahallesi, 03040 Afyonkarahisar Merkez/Afyonkarahisar",
    "longitude": 30.557898,
    "latitude": 38.736572,
    "type": "ATM",
    "neighborhood": "İstiklal Mh.",
    "single": "H",
    "onsite": "Onsite",
    "access": "",
    "serviceType": "",
    "salary": null,
    "barcodeReader": "H",
    "coin": "E",
    "moneyRecognition": "E"
  },
  {
    "bankId": "6003",
    "city": "03",
    "district": "Merkez",
    "address": "Ertuğrul Gazı Mah., Yenı Otogar Tesıslerı D:3, 03200 Kümeevler/Afyonkarahısar",
    "longitude": 30.510513,
    "latitude": 38.790436,
    "type": "ATM",
    "neighborhood": "Orhangazi Mh.",
    "single": "H",
    "onsite": "Offsite",
    "access": "",
    "serviceType": "",
    "salary": null,
    "barcodeReader": "H",
    "coin": "E",
    "moneyRecognition": "E"
  },
  {
    "bankId": "6003",
    "city": "03",
    "district": "Merkez",
    "address": "Yenice Mah. Fevzi Çakmak Cad. Ankara Yolu No:1 Afyonkarahisar",
    "longitude": 30.573822,
    "latitude": 38.762753,
    "type": "ATM",
    "neighborhood": "Sahipata Mh.",
    "single": "H",
    "onsite": "Onsite",
    "access": "",
    "serviceType": "",
    "salary": null,
    "barcodeReader": "H",
    "coin": "E",
    "moneyRecognition": "E"
  },
  {
    "bankId": "6003",
    "city": "03",
    "district": "Merkez",
    "address": "Selçuklu Mah. Adnan Kahveci Sk. 42/K Afyonkarahisar",
    "longitude": 30.536701,
    "latitude": 38.77094,
    "type": "ATM",
    "neighborhood": "Selçuklu Mh.",
    "single": "H",
    "onsite": "Onsite",
    "access": "",
    "serviceType": "",
    "salary": null,
    "barcodeReader": "H",
    "coin": "E",
    "moneyRecognition": "E"
  },
  {
    "bankId": "6003",
    "city": "03",
    "district": "Merkez",
    "address": "Afyonkarahısar Osb Mah. Ankara Yolu Cd. 12.(1) Sk. No: 15 / 15",
    "longitude": 30.599121,
    "latitude": 38.7735,
    "type": "ATM",
    "neighborhood": "Veysel Karani Mh.",
    "single": "H",
    "onsite": "Onsite",
    "access": "",
    "serviceType": "",
    "salary": null,
    "barcodeReader": "H",
    "coin": "E",
    "moneyRecognition": "E"
  },
  {
    "bankId": "6003",
    "city": "03",
    "district": "Merkez",
    "address": "Cumhuriyet Mah Sülümenli Köyü Ulucami İnbeşik No:1 Merkez Afyonkarahisar",
    "longitude": 30.726791,
    "latitude": 38.720192,
    "type": "ATM",
    "neighborhood": "Zafer Mh. (Sülümenli Bld.)",
    "single": "H",
    "onsite": "Onsite",
    "access": "",
    "serviceType": "",
    "salary": null,
    "barcodeReader": "H",
    "coin": "E",
    "moneyRecognition": "E"
  },
  {
    "bankId": "6003",
    "city": "03",
    "district": "Sandıklı",
    "address": "Ece Mah. Dınar Cad. No : 18 Sandıklı",
    "longitude": 30.273415,
    "latitude": 38.463867,
    "type": "ATM",
    "neighborhood": "Ece Mh.",
    "single": "H",
    "onsite": "Onsite",
    "access": "",
    "serviceType": "",
    "salary": null,
    "barcodeReader": "H",
    "coin": "E",
    "moneyRecognition": "E"
  },
  {
    "bankId": "6003",
    "city": "03",
    "district": "Sandıklı",
    "address": "Ece Mah. Dınar Cad. No : 18 Sandıklı Afyon",
    "longitude": 30.273066,
    "latitude": 38.464264,
    "type": "ATM",
    "neighborhood": "Ece Mh.",
    "single": "H",
    "onsite": "Onsite",
    "access": "",
    "serviceType": "",
    "salary": null,
    "barcodeReader": "H",
    "coin": "E",
    "moneyRecognition": "E"
  },
  {
    "bankId": "6003",
    "city": "03",
    "district": "Sandıklı",
    "address": "Hısar Mah. Baraj Cad.No:5 Akharım Kasabası/Sandıklı",
    "longitude": 30.240185,
    "latitude": 38.636677,
    "type": "ATM",
    "neighborhood": "Hisar Mh. (Akharım Bld.)",
    "single": "H",
    "onsite": "Offsite",
    "access": "",
    "serviceType": "",
    "salary": null,
    "barcodeReader": "H",
    "coin": "E",
    "moneyRecognition": "E"
  },
  {
    "bankId": "6003",
    "city": "03",
    "district": "Sandıklı",
    "address": "Çakır Mah. Hüdai Kaplıca Küme Evleri No : 245 / 2 Sandıklı / Afyon",
    "longitude": 30.18411,
    "latitude": 38.432625,
    "type": "ATM",
    "neighborhood": "Reşadiye Köyü",
    "single": "H",
    "onsite": "Offsite",
    "access": "",
    "serviceType": "",
    "salary": null,
    "barcodeReader": "H",
    "coin": "E",
    "moneyRecognition": "E"
  },
  {
    "bankId": "6003",
    "city": "03",
    "district": "Sandıklı",
    "address": "Tapduk Emre Mah. 1. Cad. No:29 Sandıklı/Afyonkarahisar",
    "longitude": 30.263895,
    "latitude": 38.450405,
    "type": "ATM",
    "neighborhood": "Tapduk Emre Mh.",
    "single": "H",
    "onsite": "Offsite",
    "access": "",
    "serviceType": "",
    "salary": null,
    "barcodeReader": "H",
    "coin": "E",
    "moneyRecognition": "E"
  },
  {
    "bankId": "6003",
    "city": "03",
    "district": "Sinanpaşa",
    "address": "Akören Kasabası Bağdat Mah. Afyon Cad. No.7/C Sinanpaşa / Afyonkarahisar",
    "longitude": 30.370678,
    "latitude": 38.774796,
    "type": "ATM",
    "neighborhood": "Bağdat Mh. (Akören Bld.)",
    "single": "H",
    "onsite": "Onsite",
    "access": "",
    "serviceType": "",
    "salary": null,
    "barcodeReader": "H",
    "coin": "E",
    "moneyRecognition": "E"
  },
  {
    "bankId": "6003",
    "city": "03",
    "district": "Sinanpaşa",
    "address": "Çınarlı Mah.Cumhuriyet Meydanı No:24D Taşoluk Ksb.Sinanpaşa",
    "longitude": 30.354918,
    "latitude": 38.5973,
    "type": "ATM",
    "neighborhood": "Çınarlı Mh. (Taşoluk Bld.)",
    "single": "H",
    "onsite": "Onsite",
    "access": "",
    "serviceType": "",
    "salary": null,
    "barcodeReader": "H",
    "coin": "E",
    "moneyRecognition": "E"
  },
  {
    "bankId": "6003",
    "city": "03",
    "district": "Sinanpaşa",
    "address": "Mıllı Egemenlık Cad. No:2 Tınaztepe/Afyonkarahisar",
    "longitude": 30.37906,
    "latitude": 38.729095,
    "type": "ATM",
    "neighborhood": "Fatih Mh. (Tınaztepe Bld.)",
    "single": "H",
    "onsite": "Onsite",
    "access": "",
    "serviceType": "",
    "salary": null,
    "barcodeReader": "H",
    "coin": "E",
    "moneyRecognition": "E"
  },
  {
    "bankId": "6003",
    "city": "03",
    "district": "Sinanpaşa",
    "address": "Öğretmenler Mah. Afyon Cad. Sınanpaşa",
    "longitude": 30.252485,
    "latitude": 38.756527,
    "type": "ATM",
    "neighborhood": "Öğretmenler Mh.",
    "single": "H",
    "onsite": "Onsite",
    "access": "",
    "serviceType": "",
    "salary": null,
    "barcodeReader": "H",
    "coin": "E",
    "moneyRecognition": "E"
  },
  {
    "bankId": "6003",
    "city": "03",
    "district": "Sultandağı",
    "address": "Kayran Mah. Akşehır Cad. No : 4/A Sultandağı",
    "longitude": 31.230896,
    "latitude": 38.531128,
    "type": "ATM",
    "neighborhood": "Yıldırım Mh.",
    "single": "H",
    "onsite": "Onsite",
    "access": "",
    "serviceType": "",
    "salary": null,
    "barcodeReader": "H",
    "coin": "E",
    "moneyRecognition": "E"
  },
  {
    "bankId": "6003",
    "city": "03",
    "district": "Şuhut",
    "address": "Cumhurıyet Cad. Pazar Mah. No : 9 Şuhut",
    "longitude": 30.545023,
    "latitude": 38.533054,
    "type": "ATM",
    "neighborhood": "Kurtuluş Mh.",
    "single": "H",
    "onsite": "Onsite",
    "access": "",
    "serviceType": "",
    "salary": null,
    "barcodeReader": "H",
    "coin": "E",
    "moneyRecognition": "E"
  },
  {
    "bankId": "6003",
    "city": "03",
    "district": "Şuhut",
    "address": "Zafer Mah. Cumhuriyet Cad. No:7 Şuhut Afyonkarahisar",
    "longitude": 30.541367,
    "latitude": 38.528133,
    "type": "ATM",
    "neighborhood": "Zafer Mh.",
    "single": "H",
    "onsite": "Onsite",
    "access": "",
    "serviceType": "",
    "salary": null,
    "barcodeReader": "H",
    "coin": "E",
    "moneyRecognition": "E"
  },
  {
    "bankId": "6003",
    "city": "04",
    "district": "Diyadin",
    "address": "Atatürk Mah. İnönü Cd. Ömer Sk. No: 69",
    "longitude": 43.67347,
    "latitude": 39.539803,
    "type": "ATM",
    "neighborhood": "İsaağa Mh.",
    "single": "H",
    "onsite": "Onsite",
    "access": "",
    "serviceType": "",
    "salary": null,
    "barcodeReader": "H",
    "coin": "E",
    "moneyRecognition": "E"
  },
  {
    "bankId": "6003",
    "city": "04",
    "district": "Doğubayazıt",
    "address": "Ishak Paşa Mah. Ağrı Cad. No:292 Doğubayazıt/Ağrı",
    "longitude": 44.080776,
    "latitude": 39.548523,
    "type": "ATM",
    "neighborhood": "Ahmedihani Mh.",
    "single": "H",
    "onsite": "Onsite",
    "access": "",
    "serviceType": "",
    "salary": null,
    "barcodeReader": "H",
    "coin": "E",
    "moneyRecognition": "E"
  },
  {
    "bankId": "6003",
    "city": "04",
    "district": "Doğubayazıt",
    "address": "Çıftepınar Mah. Dr. İsmaıl Beşıkçı Cd.No:151",
    "longitude": 44.082817,
    "latitude": 39.546207,
    "type": "ATM",
    "neighborhood": "Çiftepınar Mh.",
    "single": "H",
    "onsite": "Onsite",
    "access": "",
    "serviceType": "",
    "salary": null,
    "barcodeReader": "H",
    "coin": "E",
    "moneyRecognition": "E"
  },
  {
    "bankId": "6003",
    "city": "04",
    "district": "Doğubayazıt",
    "address": "Gürbulak Hudut Kapısı",
    "longitude": 44.371094,
    "latitude": 39.41571,
    "type": "ATM",
    "neighborhood": "Gürbulak Köyü",
    "single": "H",
    "onsite": "Onsite",
    "access": "",
    "serviceType": "",
    "salary": null,
    "barcodeReader": "H",
    "coin": "E",
    "moneyRecognition": "E"
  },
  {
    "bankId": "6003",
    "city": "04",
    "district": "Eleşkirt",
    "address": "Barın Cad. No:18 Eleşkırt",
    "longitude": 42.675293,
    "latitude": 39.799072,
    "type": "ATM",
    "neighborhood": "İstiklal Mh.",
    "single": "H",
    "onsite": "Onsite",
    "access": "",
    "serviceType": "",
    "salary": null,
    "barcodeReader": "H",
    "coin": "E",
    "moneyRecognition": "E"
  },
  {
    "bankId": "6003",
    "city": "04",
    "district": "Hamur",
    "address": "Merkez Mah. Van Cad. Çevre Sok. No: 58",
    "longitude": 42.991882,
    "latitude": 39.611694,
    "type": "ATM",
    "neighborhood": "Kale Mh.",
    "single": "H",
    "onsite": "Onsite",
    "access": "",
    "serviceType": "",
    "salary": null,
    "barcodeReader": "H",
    "coin": "E",
    "moneyRecognition": "E"
  },
  {
    "bankId": "6003",
    "city": "04",
    "district": "Merkez",
    "address": "Cumhurıyet Cad. No:6 Ağrı",
    "longitude": 43.052307,
    "latitude": 39.720093,
    "type": "ATM",
    "neighborhood": "Leylek Pınar Mh.",
    "single": "H",
    "onsite": "Onsite",
    "access": "",
    "serviceType": "",
    "salary": null,
    "barcodeReader": "H",
    "coin": "E",
    "moneyRecognition": "E"
  },
  {
    "bankId": "6003",
    "city": "04",
    "district": "Merkez",
    "address": "Cumhurıyet Cad. No:6 Ağrı",
    "longitude": 43.052307,
    "latitude": 39.720093,
    "type": "ATM",
    "neighborhood": "Leylek Pınar Mh.",
    "single": "H",
    "onsite": "Onsite",
    "access": "",
    "serviceType": "",
    "salary": null,
    "barcodeReader": "H",
    "coin": "E",
    "moneyRecognition": "E"
  },
  {
    "bankId": "6003",
    "city": "04",
    "district": "Merkez",
    "address": "Leylekpınar Mah. Cumh Cad. No : 50 / 1 Merkez / Ağrı",
    "longitude": 43.052113,
    "latitude": 39.71996,
    "type": "ATM",
    "neighborhood": "Leylek Pınar Mh.",
    "single": "H",
    "onsite": "Onsite",
    "access": "",
    "serviceType": "",
    "salary": null,
    "barcodeReader": "H",
    "coin": "E",
    "moneyRecognition": "E"
  },
  {
    "bankId": "6003",
    "city": "04",
    "district": "Merkez",
    "address": "Yavuz Mah. Kagızman Cd. 409 Sk. No: 1",
    "longitude": 43.05072,
    "latitude": 39.72229,
    "type": "ATM",
    "neighborhood": "Yavuz Mh.",
    "single": "H",
    "onsite": "Onsite",
    "access": "",
    "serviceType": "",
    "salary": null,
    "barcodeReader": "H",
    "coin": "E",
    "moneyRecognition": "E"
  },
  {
    "bankId": "6003",
    "city": "04",
    "district": "Patnos",
    "address": "Atatürk Mah Atatürk Bulvarı Saıdı Nursı Cad 126. Sok No::9",
    "longitude": 42.854862,
    "latitude": 39.235615,
    "type": "ATM",
    "neighborhood": "Atatürk Mh.",
    "single": "H",
    "onsite": "Onsite",
    "access": "",
    "serviceType": "",
    "salary": null,
    "barcodeReader": "H",
    "coin": "E",
    "moneyRecognition": "E"
  },
  {
    "bankId": "6003",
    "city": "04",
    "district": "Patnos",
    "address": "Atatürk Mah Atatürk Bulvarı Saıdı Nursı Cad 126. Sok No::9",
    "longitude": 42.854862,
    "latitude": 39.235615,
    "type": "ATM",
    "neighborhood": "Atatürk Mh.",
    "single": "H",
    "onsite": "Onsite",
    "access": "",
    "serviceType": "",
    "salary": null,
    "barcodeReader": "H",
    "coin": "E",
    "moneyRecognition": "E"
  },
  {
    "bankId": "6003",
    "city": "04",
    "district": "Patnos",
    "address": "Atatürk Mah Atatürk Bulvarı Saıdı Nursı Cad 126. Sok No::9",
    "longitude": 42.854862,
    "latitude": 39.235615,
    "type": "ATM",
    "neighborhood": "Atatürk Mh.",
    "single": "H",
    "onsite": "Onsite",
    "access": "",
    "serviceType": "",
    "salary": null,
    "barcodeReader": "H",
    "coin": "E",
    "moneyRecognition": "E"
  },
  {
    "bankId": "6003",
    "city": "04",
    "district": "Patnos",
    "address": "İnönü Mah. Recep Tayyip Erdodoğan Bul. No: 254 / Patnos / Ağrı",
    "longitude": 42.865143,
    "latitude": 39.233444,
    "type": "ATM",
    "neighborhood": "İnönü Mh.",
    "single": "H",
    "onsite": "Onsite",
    "access": "",
    "serviceType": "",
    "salary": null,
    "barcodeReader": "H",
    "coin": "E",
    "moneyRecognition": "E"
  },
  {
    "bankId": "6003",
    "city": "04",
    "district": "Taşlıçay",
    "address": "15 Temmuz Şehitler Mh Tuna Apart A Blok No:1",
    "longitude": 43.374855,
    "latitude": 39.63608,
    "type": "ATM",
    "neighborhood": "Cumhuriyet Mh.",
    "single": "H",
    "onsite": "Onsite",
    "access": "",
    "serviceType": "",
    "salary": null,
    "barcodeReader": "H",
    "coin": "E",
    "moneyRecognition": "E"
  },
  {
    "bankId": "6003",
    "city": "04",
    "district": "Tutak",
    "address": "Cumhurıyet Cad. Tutak",
    "longitude": 42.772095,
    "latitude": 39.539917,
    "type": "ATM",
    "neighborhood": "Murat Mh.",
    "single": "E",
    "onsite": "Onsite",
    "access": "",
    "serviceType": "",
    "salary": null,
    "barcodeReader": "H",
    "coin": "E",
    "moneyRecognition": "E"
  },
  {
    "bankId": "6003",
    "city": "05",
    "district": "Göynücek",
    "address": "Yenı Mah. Hürrıyet Cad. 15/A Göynücek",
    "longitude": 35.52411,
    "latitude": 40.397522,
    "type": "ATM",
    "neighborhood": "Merkez Mh.",
    "single": "H",
    "onsite": "Onsite",
    "access": "",
    "serviceType": "",
    "salary": null,
    "barcodeReader": "H",
    "coin": "E",
    "moneyRecognition": "E"
  },
  {
    "bankId": "6003",
    "city": "05",
    "district": "Gümüşhacıköy",
    "address": "Çumara Mah. Mehmet Paşa Cad. No:53 Gümüşhacıköy",
    "longitude": 35.219482,
    "latitude": 40.874084,
    "type": "ATM",
    "neighborhood": "Cumara Mh.",
    "single": "H",
    "onsite": "Onsite",
    "access": "",
    "serviceType": "",
    "salary": null,
    "barcodeReader": "H",
    "coin": "E",
    "moneyRecognition": "E"
  },
  {
    "bankId": "6003",
    "city": "05",
    "district": "Hamamözü",
    "address": "Arkutbey Mah. Meydan Cd.No:15 G.Hacıköy",
    "longitude": 35.0237,
    "latitude": 40.7833,
    "type": "ATM",
    "neighborhood": "Saray Mh.",
    "single": "E",
    "onsite": "Onsite",
    "access": "",
    "serviceType": "",
    "salary": null,
    "barcodeReader": "H",
    "coin": "E",
    "moneyRecognition": "E"
  },
  {
    "bankId": "6003",
    "city": "05",
    "district": "Merkez",
    "address": "Akbılek Mah. Kemal Nehrozoglu Cad. 1",
    "longitude": 35.80446,
    "latitude": 40.652977,
    "type": "ATM",
    "neighborhood": "Akbilek Mh.",
    "single": "H",
    "onsite": "Onsite",
    "access": "",
    "serviceType": "",
    "salary": null,
    "barcodeReader": "H",
    "coin": "E",
    "moneyRecognition": "E"
  },
  {
    "bankId": "6003",
    "city": "05",
    "district": "Merkez",
    "address": "Dere Mh.Özkan Yalçın Cd.4/A Merkez Amasya",
    "longitude": 35.83127,
    "latitude": 40.651463,
    "type": "ATM",
    "neighborhood": "Dere Mh.",
    "single": "H",
    "onsite": "Onsite",
    "access": "",
    "serviceType": "",
    "salary": null,
    "barcodeReader": "H",
    "coin": "E",
    "moneyRecognition": "E"
  },
  {
    "bankId": "6003",
    "city": "05",
    "district": "Merkez",
    "address": "Hacılar Meydanı Mh. Prof.Dr.Necmettın Erbakan Cd. No:6/C Amasya",
    "longitude": 35.810764,
    "latitude": 40.64659,
    "type": "ATM",
    "neighborhood": "Hacılar Meydanı Mh.",
    "single": "H",
    "onsite": "Onsite",
    "access": "",
    "serviceType": "",
    "salary": null,
    "barcodeReader": "H",
    "coin": "E",
    "moneyRecognition": "E"
  },
  {
    "bankId": "6003",
    "city": "05",
    "district": "Merkez",
    "address": "Derekocacık Mah. Zıya Paşa Bulvarı No:21/Amasya",
    "longitude": 35.831726,
    "latitude": 40.6521,
    "type": "ATM",
    "neighborhood": "Hatuniye Mh.",
    "single": "H",
    "onsite": "Onsite",
    "access": "",
    "serviceType": "",
    "salary": null,
    "barcodeReader": "H",
    "coin": "E",
    "moneyRecognition": "E"
  },
  {
    "bankId": "6003",
    "city": "05",
    "district": "Merkez",
    "address": "Mustafa Kemal Paşa Cad.Zıyapaşa Blv.1/1",
    "longitude": 35.833855,
    "latitude": 40.664165,
    "type": "ATM",
    "neighborhood": "İhsaniye Mh.",
    "single": "H",
    "onsite": "Onsite",
    "access": "",
    "serviceType": "",
    "salary": null,
    "barcodeReader": "H",
    "coin": "E",
    "moneyRecognition": "E"
  },
  {
    "bankId": "6003",
    "city": "05",
    "district": "Merkez",
    "address": "Tokat Amasya Yolu Küçük Sanayı Sıtesı",
    "longitude": 35.7927,
    "latitude": 40.5652,
    "type": "ATM",
    "neighborhood": "Kapıkaya Köyü",
    "single": "H",
    "onsite": "Onsite",
    "access": "",
    "serviceType": "",
    "salary": null,
    "barcodeReader": "H",
    "coin": "E",
    "moneyRecognition": "E"
  },
  {
    "bankId": "6003",
    "city": "05",
    "district": "Merkez",
    "address": "Yazı Bağları Mh. Kışla Cd. 15.Pıyade Tugay Komutanlığı No:4/1 Merkez /Amasya",
    "longitude": 35.797447,
    "latitude": 40.612453,
    "type": "ATM",
    "neighborhood": "Yazı Bağları Mh.",
    "single": "H",
    "onsite": "Onsite",
    "access": "",
    "serviceType": "",
    "salary": null,
    "barcodeReader": "H",
    "coin": "E",
    "moneyRecognition": "E"
  },
  {
    "bankId": "6003",
    "city": "05",
    "district": "Merzifon",
    "address": "Harmanlar Mah. Harmanlar Cad. No:2",
    "longitude": 35.46222,
    "latitude": 40.871246,
    "type": "ATM",
    "neighborhood": "Harmanlar Mh.",
    "single": "H",
    "onsite": "Onsite",
    "access": "",
    "serviceType": "",
    "salary": null,
    "barcodeReader": "H",
    "coin": "E",
    "moneyRecognition": "E"
  },
  {
    "bankId": "6003",
    "city": "05",
    "district": "Merzifon",
    "address": "Harmanlar Mah. Harmanlar Cad. No:2",
    "longitude": 35.46222,
    "latitude": 40.871246,
    "type": "ATM",
    "neighborhood": "Harmanlar Mh.",
    "single": "H",
    "onsite": "Onsite",
    "access": "",
    "serviceType": "",
    "salary": null,
    "barcodeReader": "H",
    "coin": "E",
    "moneyRecognition": "E"
  },
  {
    "bankId": "6003",
    "city": "05",
    "district": "Suluova",
    "address": "Orta Mah. Hacımolla Cad. No:10/Suluova",
    "longitude": 35.64612,
    "latitude": 40.836914,
    "type": "ATM",
    "neighborhood": "Orta Mh.",
    "single": "H",
    "onsite": "Onsite",
    "access": "",
    "serviceType": "",
    "salary": null,
    "barcodeReader": "H",
    "coin": "E",
    "moneyRecognition": "E"
  },
  {
    "bankId": "6003",
    "city": "05",
    "district": "Taşova",
    "address": "Yemişen Mah. M. Çakmak Cad. No:4/A/Taşova",
    "longitude": 36.32251,
    "latitude": 40.76129,
    "type": "ATM",
    "neighborhood": "Yemişen Mh.",
    "single": "H",
    "onsite": "Onsite",
    "access": "",
    "serviceType": "",
    "salary": null,
    "barcodeReader": "H",
    "coin": "E",
    "moneyRecognition": "E"
  },
  {
    "bankId": "6003",
    "city": "06",
    "district": "Akyurt",
    "address": "Yıldırım Mah.Ankara Cad.No:29 Akyurt",
    "longitude": 33.085556,
    "latitude": 40.13082,
    "type": "ATM",
    "neighborhood": "Yıldırım Mh.",
    "single": "H",
    "onsite": "Onsite",
    "access": "",
    "serviceType": "",
    "salary": null,
    "barcodeReader": "H",
    "coin": "E",
    "moneyRecognition": "E"
  },
  {
    "bankId": "6003",
    "city": "06",
    "district": "Altındağ",
    "address": "Şehit Mustafa Baş Cad.Gar Sok.No:79/A Aydınlıkevler",
    "longitude": 32.87895,
    "latitude": 39.960796,
    "type": "ATM",
    "neighborhood": "Aydınlıkevler Mh.",
    "single": "H",
    "onsite": "Onsite",
    "access": "",
    "serviceType": "",
    "salary": null,
    "barcodeReader": "H",
    "coin": "E",
    "moneyRecognition": "E"
  },
  {
    "bankId": "6003",
    "city": "06",
    "district": "Altındağ",
    "address": "Battalgazı Mah. 1. Cad. No:84/B",
    "longitude": 32.918884,
    "latitude": 39.9635,
    "type": "ATM",
    "neighborhood": "Battalgazi Mh.",
    "single": "H",
    "onsite": "Onsite",
    "access": "",
    "serviceType": "",
    "salary": null,
    "barcodeReader": "H",
    "coin": "E",
    "moneyRecognition": "E"
  },
  {
    "bankId": "6003",
    "city": "06",
    "district": "Altındağ",
    "address": "Çamlık Mah.Orhan Kemal Cd.No 270 Altındağ/Ankara",
    "longitude": 32.944332,
    "latitude": 39.96751,
    "type": "ATM",
    "neighborhood": "Battalgazi Mh.",
    "single": "H",
    "onsite": "Onsite",
    "access": "",
    "serviceType": "",
    "salary": null,
    "barcodeReader": "H",
    "coin": "E",
    "moneyRecognition": "E"
  },
  {
    "bankId": "6003",
    "city": "06",
    "district": "Altındağ",
    "address": "Orhan Kemal Cad.No:335/B Hüseyingazi",
    "longitude": 32.94587,
    "latitude": 39.967457,
    "type": "ATM",
    "neighborhood": "Beşikkaya Mh.",
    "single": "H",
    "onsite": "Onsite",
    "access": "",
    "serviceType": "",
    "salary": null,
    "barcodeReader": "H",
    "coin": "E",
    "moneyRecognition": "E"
  },
  {
    "bankId": "6003",
    "city": "06",
    "district": "Altındağ",
    "address": "Örnek Mah. Gültepe Cad.No:19/5 (D Blok) Altındağ/Ankara",
    "longitude": 32.88586,
    "latitude": 39.946606,
    "type": "ATM",
    "neighborhood": "Gültepe Mh.",
    "single": "H",
    "onsite": "Onsite",
    "access": "",
    "serviceType": "",
    "salary": null,
    "barcodeReader": "H",
    "coin": "E",
    "moneyRecognition": "E"
  },
  {
    "bankId": "6003",
    "city": "06",
    "district": "Altındağ",
    "address": "Server Somuncuoğlu Mh Babür Cad.No:40 Çinçin",
    "longitude": 32.878326,
    "latitude": 39.952816,
    "type": "ATM",
    "neighborhood": "Gültepe Mh.",
    "single": "H",
    "onsite": "Onsite",
    "access": "",
    "serviceType": "",
    "salary": null,
    "barcodeReader": "H",
    "coin": "E",
    "moneyRecognition": "E"
  },
  {
    "bankId": "6003",
    "city": "06",
    "district": "Altındağ",
    "address": "Anafartalar Mahallesı, Anafartalar Cd. No:98, 06050 Altındağ/Ankara",
    "longitude": 32.86172,
    "latitude": 39.93494,
    "type": "ATM",
    "neighborhood": "Hacettepe Mh.",
    "single": "H",
    "onsite": "Onsite",
    "access": "",
    "serviceType": "",
    "salary": null,
    "barcodeReader": "H",
    "coin": "E",
    "moneyRecognition": "E"
  },
  {
    "bankId": "6003",
    "city": "06",
    "district": "Altındağ",
    "address": "Atatürk Bulvarı Ülkü Mah.No:2 Ulus",
    "longitude": 32.854614,
    "latitude": 39.93998,
    "type": "ATM",
    "neighborhood": "Hacettepe Mh.",
    "single": "H",
    "onsite": "Onsite",
    "access": "",
    "serviceType": "",
    "salary": null,
    "barcodeReader": "H",
    "coin": "E",
    "moneyRecognition": "E"
  },
  {
    "bankId": "6003",
    "city": "06",
    "district": "Altındağ",
    "address": "Atatürk Bulvarı Ülkü Mah.No:2 Ulus",
    "longitude": 32.854614,
    "latitude": 39.93998,
    "type": "ATM",
    "neighborhood": "Hacettepe Mh.",
    "single": "H",
    "onsite": "Onsite",
    "access": "",
    "serviceType": "",
    "salary": null,
    "barcodeReader": "H",
    "coin": "E",
    "moneyRecognition": "E"
  },
  {
    "bankId": "6003",
    "city": "06",
    "district": "Altındağ",
    "address": "Atatürk Bulvarı Ülkü Mah.No:2 Ulus",
    "longitude": 32.854614,
    "latitude": 39.93998,
    "type": "ATM",
    "neighborhood": "Hacettepe Mh.",
    "single": "H",
    "onsite": "Onsite",
    "access": "",
    "serviceType": "",
    "salary": null,
    "barcodeReader": "H",
    "coin": "E",
    "moneyRecognition": "E"
  },
  {
    "bankId": "6003",
    "city": "06",
    "district": "Altındağ",
    "address": "Atatürk Bulvarı Ülkü Mah.No:2 Ulus",
    "longitude": 32.854492,
    "latitude": 39.93988,
    "type": "ATM",
    "neighborhood": "Hacettepe Mh.",
    "single": "H",
    "onsite": "Offsite",
    "access": "",
    "serviceType": "",
    "salary": null,
    "barcodeReader": "H",
    "coin": "E",
    "moneyRecognition": "E"
  },
  {
    "bankId": "6003",
    "city": "06",
    "district": "Altındağ",
    "address": "Atatürk Bulvarı Ülkü Mah.No:2 Ulus",
    "longitude": 32.854492,
    "latitude": 39.93988,
    "type": "ATM",
    "neighborhood": "Hacettepe Mh.",
    "single": "H",
    "onsite": "Onsite",
    "access": "",
    "serviceType": "",
    "salary": null,
    "barcodeReader": "H",
    "coin": "E",
    "moneyRecognition": "E"
  },
  {
    "bankId": "6003",
    "city": "06",
    "district": "Altındağ",
    "address": "Hacettepe Mah. Adnan Saygun Cad. Hacettepe Ptt Apt. No:25B Altındağ / Ankara",
    "longitude": 32.86062,
    "latitude": 39.93005,
    "type": "ATM",
    "neighborhood": "Hacettepe Mh.",
    "single": "H",
    "onsite": "Onsite",
    "access": "",
    "serviceType": "",
    "salary": null,
    "barcodeReader": "H",
    "coin": "E",
    "moneyRecognition": "E"
  },
  {
    "bankId": "6003",
    "city": "06",
    "district": "Altındağ",
    "address": "Talatpaşa Bulvarı Hamam Önü Sok. No:30 Cebecı/Ankara",
    "longitude": 32.866543,
    "latitude": 39.93317,
    "type": "ATM",
    "neighborhood": "Hacettepe Mh.",
    "single": "H",
    "onsite": "Onsite",
    "access": "",
    "serviceType": "",
    "salary": null,
    "barcodeReader": "H",
    "coin": "E",
    "moneyRecognition": "E"
  },
  {
    "bankId": "6003",
    "city": "06",
    "district": "Altındağ",
    "address": "Adlıye Sarayı Hızmet Bınası Zemın Kat Sıhhıye",
    "longitude": 32.852406,
    "latitude": 39.9298,
    "type": "ATM",
    "neighborhood": "Hacı Bayram Mh.",
    "single": "H",
    "onsite": "Onsite",
    "access": "",
    "serviceType": "",
    "salary": null,
    "barcodeReader": "H",
    "coin": "E",
    "moneyRecognition": "E"
  },
  {
    "bankId": "6003",
    "city": "06",
    "district": "Altındağ",
    "address": "Anafartalar Mah.Sanayi Cad. Kızılbey Sok. No: 4 Ulus",
    "longitude": 32.85637,
    "latitude": 39.940464,
    "type": "ATM",
    "neighborhood": "Hacı Bayram Mh.",
    "single": "H",
    "onsite": "Offsite",
    "access": "",
    "serviceType": "",
    "salary": null,
    "barcodeReader": "H",
    "coin": "E",
    "moneyRecognition": "E"
  },
  {
    "bankId": "6003",
    "city": "06",
    "district": "Altındağ",
    "address": "Anafartalar Mah.Sanayi Cad. Kızılbey Sok. No: 4 Ulus",
    "longitude": 32.856487,
    "latitude": 39.94036,
    "type": "ATM",
    "neighborhood": "Hacı Bayram Mh.",
    "single": "H",
    "onsite": "Offsite",
    "access": "",
    "serviceType": "",
    "salary": null,
    "barcodeReader": "H",
    "coin": "E",
    "moneyRecognition": "E"
  },
  {
    "bankId": "6003",
    "city": "06",
    "district": "Altındağ",
    "address": "Anafartalar Mh. Rüzgarlı Cd. No: 24 Altındağ Ankara",
    "longitude": 32.85028,
    "latitude": 39.94287,
    "type": "ATM",
    "neighborhood": "Hacı Bayram Mh.",
    "single": "H",
    "onsite": "Onsite",
    "access": "",
    "serviceType": "",
    "salary": null,
    "barcodeReader": "H",
    "coin": "E",
    "moneyRecognition": "E"
  },
  {
    "bankId": "6003",
    "city": "06",
    "district": "Altındağ",
    "address": "Hacı Bayram Mah. Hükümet Cad. B Blok No : 26 Altındağ / Ankara",
    "longitude": 32.856754,
    "latitude": 39.943645,
    "type": "ATM",
    "neighborhood": "Hacı Bayram Mh.",
    "single": "H",
    "onsite": "Onsite",
    "access": "",
    "serviceType": "",
    "salary": null,
    "barcodeReader": "H",
    "coin": "E",
    "moneyRecognition": "E"
  },
  {
    "bankId": "6003",
    "city": "06",
    "district": "Altındağ",
    "address": "Karacaören Mah. 2100 Cad. Alışveriş Merk. No:1/14 Altındağ/Ankara",
    "longitude": 32.91974,
    "latitude": 40.023132,
    "type": "ATM",
    "neighborhood": "Karacaören Mh.",
    "single": "H",
    "onsite": "Onsite",
    "access": "",
    "serviceType": "",
    "salary": null,
    "barcodeReader": "H",
    "coin": "E",
    "moneyRecognition": "E"
  },
  {
    "bankId": "6003",
    "city": "06",
    "district": "Altındağ",
    "address": "Karapürçek Mah. Karapürçek Cd. 368 Sk. No: 11",
    "longitude": 32.96726,
    "latitude": 39.97265,
    "type": "ATM",
    "neighborhood": "Karapürçek Mh.",
    "single": "H",
    "onsite": "Onsite",
    "access": "",
    "serviceType": "",
    "salary": null,
    "barcodeReader": "H",
    "coin": "E",
    "moneyRecognition": "E"
  },
  {
    "bankId": "6003",
    "city": "06",
    "district": "Altındağ",
    "address": "Karapürçek Mahallesi 283 Sokak No: 1 C",
    "longitude": 32.981194,
    "latitude": 39.966812,
    "type": "ATM",
    "neighborhood": "Karapürçek Mh.",
    "single": "H",
    "onsite": "Onsite",
    "access": "",
    "serviceType": "",
    "salary": null,
    "barcodeReader": "H",
    "coin": "E",
    "moneyRecognition": "E"
  },
  {
    "bankId": "6003",
    "city": "06",
    "district": "Altındağ",
    "address": "Demirhendek Cad.No:55 Siteler",
    "longitude": 32.897095,
    "latitude": 39.957092,
    "type": "ATM",
    "neighborhood": "Önder Mh.",
    "single": "H",
    "onsite": "Onsite",
    "access": "",
    "serviceType": "",
    "salary": null,
    "barcodeReader": "H",
    "coin": "E",
    "moneyRecognition": "E"
  },
  {
    "bankId": "6003",
    "city": "06",
    "district": "Altındağ",
    "address": "Önder Mah Ereğli Cad Köyceğiz Sok No:53 Siteler",
    "longitude": 32.905273,
    "latitude": 39.96051,
    "type": "ATM",
    "neighborhood": "Önder Mh.",
    "single": "H",
    "onsite": "Onsite",
    "access": "",
    "serviceType": "",
    "salary": null,
    "barcodeReader": "H",
    "coin": "E",
    "moneyRecognition": "E"
  },
  {
    "bankId": "6003",
    "city": "06",
    "district": "Altındağ",
    "address": "Altındağ",
    "longitude": 32.85978,
    "latitude": 39.95231,
    "type": "ATM",
    "neighborhood": "Örnek Mh.",
    "single": "H",
    "onsite": "Onsite",
    "access": "",
    "serviceType": "",
    "salary": null,
    "barcodeReader": "H",
    "coin": "E",
    "moneyRecognition": "E"
  },
  {
    "bankId": "6003",
    "city": "06",
    "district": "Altındağ",
    "address": "Gülpınar Mah Celal Esat Arseven Cad No:179 Altındağ-Ankara",
    "longitude": 32.89408,
    "latitude": 39.972836,
    "type": "ATM",
    "neighborhood": "Yıldıztepe Mh.",
    "single": "H",
    "onsite": "Onsite",
    "access": "",
    "serviceType": "",
    "salary": null,
    "barcodeReader": "H",
    "coin": "E",
    "moneyRecognition": "E"
  },
  {
    "bankId": "6003",
    "city": "06",
    "district": "Altındağ",
    "address": "Altındağ İlçesi Ziraat Mahallesi Etlik Caddesi No:12",
    "longitude": 32.85338,
    "latitude": 39.955585,
    "type": "ATM",
    "neighborhood": "Zübeyde Hanım Mh.",
    "single": "H",
    "onsite": "Onsite",
    "access": "",
    "serviceType": "",
    "salary": null,
    "barcodeReader": "H",
    "coin": "E",
    "moneyRecognition": "E"
  },
  {
    "bankId": "6003",
    "city": "06",
    "district": "Altındağ",
    "address": "Su Güzelı Sok.No:1 İskıtler",
    "longitude": 32.841908,
    "latitude": 39.95275,
    "type": "ATM",
    "neighborhood": "Zübeyde Hanım Mh.",
    "single": "H",
    "onsite": "Onsite",
    "access": "",
    "serviceType": "",
    "salary": null,
    "barcodeReader": "H",
    "coin": "E",
    "moneyRecognition": "E"
  },
  {
    "bankId": "6003",
    "city": "06",
    "district": "Bala",
    "address": "Kırşehır Cad.No:34 Bala",
    "longitude": 33.12329,
    "latitude": 39.55487,
    "type": "ATM",
    "neighborhood": "Göztepe Mh.",
    "single": "H",
    "onsite": "Onsite",
    "access": "",
    "serviceType": "",
    "salary": null,
    "barcodeReader": "H",
    "coin": "E",
    "moneyRecognition": "E"
  },
  {
    "bankId": "6003",
    "city": "06",
    "district": "Bala",
    "address": "Kesikköprü Mh. Mithatpaşa Cd. No:1(Önü) Kesikköprü Bala Ankara",
    "longitude": 33.40071,
    "latitude": 39.39596,
    "type": "ATM",
    "neighborhood": "Kesikköprü Kızılırmak Mh.",
    "single": "H",
    "onsite": "Offsite",
    "access": "",
    "serviceType": "",
    "salary": null,
    "barcodeReader": "H",
    "coin": "E",
    "moneyRecognition": "E"
  },
  {
    "bankId": "6003",
    "city": "06",
    "district": "Beypazarı",
    "address": "Hacıkara Mh. Kantar Sk. Açıkgöz Apt. 22/A-B Beypazarı",
    "longitude": 31.912779,
    "latitude": 40.15313,
    "type": "ATM",
    "neighborhood": "Hacıkara Mh.",
    "single": "H",
    "onsite": "Onsite",
    "access": "",
    "serviceType": "",
    "salary": null,
    "barcodeReader": "H",
    "coin": "E",
    "moneyRecognition": "E"
  },
  {
    "bankId": "6003",
    "city": "06",
    "district": "Beypazarı",
    "address": "Kurtuluş Mahallesı, Mıllı Egemenlık Cd. No:51, Beypazarı/Ankara",
    "longitude": 31.91878,
    "latitude": 40.165092,
    "type": "ATM",
    "neighborhood": "Kurtuluş Mh.",
    "single": "H",
    "onsite": "Onsite",
    "access": "",
    "serviceType": "",
    "salary": null,
    "barcodeReader": "H",
    "coin": "E",
    "moneyRecognition": "E"
  },
  {
    "bankId": "6003",
    "city": "06",
    "district": "Çamlıdere",
    "address": "Beşbeyler Cad.Orta Mah.No:6/A Çamlıdere",
    "longitude": 32.476074,
    "latitude": 40.490906,
    "type": "ATM",
    "neighborhood": "Orta Mh.",
    "single": "H",
    "onsite": "Onsite",
    "access": "",
    "serviceType": "",
    "salary": null,
    "barcodeReader": "H",
    "coin": "E",
    "moneyRecognition": "E"
  },
  {
    "bankId": "6003",
    "city": "06",
    "district": "Çankaya",
    "address": "Bağlar Cad.Fıskiye Sok.No:28/A Büyükesat",
    "longitude": 32.873108,
    "latitude": 39.901123,
    "type": "ATM",
    "neighborhood": "100.Yıl Mh.",
    "single": "H",
    "onsite": "Onsite",
    "access": "",
    "serviceType": "",
    "salary": null,
    "barcodeReader": "H",
    "coin": "E",
    "moneyRecognition": "E"
  },
  {
    "bankId": "6003",
    "city": "06",
    "district": "Çankaya",
    "address": "Ahlatlıbel Mah. İncek Şehit Savcı Mehmet Selim Kiraz Bul. 1 Nolu Nizam Karakolu Apt. No:14/6 Çankaya Ankara",
    "longitude": 32.76099,
    "latitude": 39.836197,
    "type": "ATM",
    "neighborhood": "Ahlatlıbel Mh.",
    "single": "H",
    "onsite": "Onsite",
    "access": "",
    "serviceType": "",
    "salary": null,
    "barcodeReader": "H",
    "coin": "E",
    "moneyRecognition": "E"
  },
  {
    "bankId": "6003",
    "city": "06",
    "district": "Çankaya",
    "address": "Alacaatlı Mahallesi 3341 Sokak No: 1 /4B Çankaya Ankara",
    "longitude": 32.701588,
    "latitude": 39.837772,
    "type": "ATM",
    "neighborhood": "Alacaatlı Mh.",
    "single": "H",
    "onsite": "Offsite",
    "access": "",
    "serviceType": "",
    "salary": null,
    "barcodeReader": "H",
    "coin": "E",
    "moneyRecognition": "E"
  },
  {
    "bankId": "6003",
    "city": "06",
    "district": "Çankaya",
    "address": "Gazı Mustafa Kemal Bulvarı No:129/A Maltepe",
    "longitude": 32.840977,
    "latitude": 39.933186,
    "type": "ATM",
    "neighborhood": "Anıttepe Mh.",
    "single": "H",
    "onsite": "Onsite",
    "access": "",
    "serviceType": "",
    "salary": null,
    "barcodeReader": "H",
    "coin": "E",
    "moneyRecognition": "E"
  },
  {
    "bankId": "6003",
    "city": "06",
    "district": "Çankaya",
    "address": "Zıya Oralay Cad. No:327 Çankaya/İstanbul",
    "longitude": 32.880493,
    "latitude": 39.910522,
    "type": "ATM",
    "neighborhood": "Aşıkpaşa Mh.",
    "single": "H",
    "onsite": "Onsite",
    "access": "",
    "serviceType": "",
    "salary": null,
    "barcodeReader": "H",
    "coin": "E",
    "moneyRecognition": "E"
  },
  {
    "bankId": "6003",
    "city": "06",
    "district": "Çankaya",
    "address": "Sokullu Mehmet Paşa Cad.No:111/A Dıkmen",
    "longitude": 32.835983,
    "latitude": 39.882072,
    "type": "ATM",
    "neighborhood": "Aydınlar Mh.",
    "single": "H",
    "onsite": "Onsite",
    "access": "",
    "serviceType": "",
    "salary": null,
    "barcodeReader": "H",
    "coin": "E",
    "moneyRecognition": "E"
  },
  {
    "bankId": "6003",
    "city": "06",
    "district": "Çankaya",
    "address": "Sokullu Mehmet Paşa Cad.No:111/A Dikmen",
    "longitude": 32.835983,
    "latitude": 39.882137,
    "type": "ATM",
    "neighborhood": "Aydınlar Mh.",
    "single": "H",
    "onsite": "Onsite",
    "access": "",
    "serviceType": "",
    "salary": null,
    "barcodeReader": "H",
    "coin": "E",
    "moneyRecognition": "E"
  },
  {
    "bankId": "6003",
    "city": "06",
    "district": "Çankaya",
    "address": "3.Cad.No:32 Bahçelıevler",
    "longitude": 32.82611,
    "latitude": 39.92871,
    "type": "ATM",
    "neighborhood": "Bahçelievler Mh.",
    "single": "H",
    "onsite": "Onsite",
    "access": "",
    "serviceType": "",
    "salary": null,
    "barcodeReader": "H",
    "coin": "E",
    "moneyRecognition": "E"
  },
  {
    "bankId": "6003",
    "city": "06",
    "district": "Çankaya",
    "address": "Bırlık Mah. 441. Cad. No:18/A",
    "longitude": 32.87433,
    "latitude": 39.879272,
    "type": "ATM",
    "neighborhood": "Birlik Mh.",
    "single": "H",
    "onsite": "Onsite",
    "access": "",
    "serviceType": "",
    "salary": null,
    "barcodeReader": "H",
    "coin": "E",
    "moneyRecognition": "E"
  },
  {
    "bankId": "6003",
    "city": "06",
    "district": "Çankaya",
    "address": "Mithatpaşa Cad.No:30 Yenişehir Çankaya Ankara",
    "longitude": 32.857376,
    "latitude": 39.922867,
    "type": "ATM",
    "neighborhood": "Cumhuriyet Mh.",
    "single": "H",
    "onsite": "Onsite",
    "access": "",
    "serviceType": "",
    "salary": null,
    "barcodeReader": "H",
    "coin": "E",
    "moneyRecognition": "E"
  },
  {
    "bankId": "6003",
    "city": "06",
    "district": "Çankaya",
    "address": "Mithatpaşa Cad.No:30 Yenişehir Çankaya Ankara",
    "longitude": 32.857376,
    "latitude": 39.922867,
    "type": "ATM",
    "neighborhood": "Cumhuriyet Mh.",
    "single": "H",
    "onsite": "Onsite",
    "access": "",
    "serviceType": "",
    "salary": null,
    "barcodeReader": "H",
    "coin": "E",
    "moneyRecognition": "E"
  },
  {
    "bankId": "6003",
    "city": "06",
    "district": "Çankaya",
    "address": "Üniversiteler Mahallesi Dumlupınar Bulvarı O.D.T.Ü Nizamiye Dış Kapı No1 Çankaya Ankara",
    "longitude": 32.789326,
    "latitude": 39.89156,
    "type": "ATM",
    "neighborhood": "Çiğdem Mh.",
    "single": "H",
    "onsite": "Onsite",
    "access": "",
    "serviceType": "",
    "salary": null,
    "barcodeReader": "H",
    "coin": "E",
    "moneyRecognition": "E"
  },
  {
    "bankId": "6003",
    "city": "06",
    "district": "Çankaya",
    "address": "Kara Harp Okulu Sosyal Tesisleri Giriş Katı-Develet Mah. Harp Okulu Cad. Yenişehir/Çankaya",
    "longitude": 32.840195,
    "latitude": 39.90546,
    "type": "ATM",
    "neighborhood": "Devlet Mh.",
    "single": "H",
    "onsite": "Onsite",
    "access": "",
    "serviceType": "",
    "salary": null,
    "barcodeReader": "H",
    "coin": "E",
    "moneyRecognition": "E"
  },
  {
    "bankId": "6003",
    "city": "06",
    "district": "Çankaya",
    "address": "Tbmm Bakanlıklar Çankaya",
    "longitude": 32.85118,
    "latitude": 39.912193,
    "type": "ATM",
    "neighborhood": "Devlet Mh.",
    "single": "H",
    "onsite": "Onsite",
    "access": "",
    "serviceType": "",
    "salary": null,
    "barcodeReader": "H",
    "coin": "E",
    "moneyRecognition": "E"
  },
  {
    "bankId": "6003",
    "city": "06",
    "district": "Çankaya",
    "address": "Dodurga Mah. Odabaşı Cad. Ss Güzel Yapı Koop Sitesi No.8 Blok 7 Kat 2",
    "longitude": 32.660873,
    "latitude": 39.82937,
    "type": "ATM",
    "neighborhood": "Dodurga Mh.",
    "single": "H",
    "onsite": "Onsite",
    "access": "",
    "serviceType": "",
    "salary": null,
    "barcodeReader": "H",
    "coin": "E",
    "moneyRecognition": "E"
  },
  {
    "bankId": "6003",
    "city": "06",
    "district": "Çankaya",
    "address": "Ceyhun Atıf Kansu Cd. Ak İş Merkezı 116/A",
    "longitude": 32.8165,
    "latitude": 39.8922,
    "type": "ATM",
    "neighborhood": "Ehlibeyt Mh.",
    "single": "H",
    "onsite": "Onsite",
    "access": "",
    "serviceType": "",
    "salary": null,
    "barcodeReader": "H",
    "coin": "E",
    "moneyRecognition": "E"
  },
  {
    "bankId": "6003",
    "city": "06",
    "district": "Çankaya",
    "address": "Ehlibeyt Mahallesi / 1242 (Cadde) / 34 - Kamu Çankaya / Ankara",
    "longitude": 32.8157,
    "latitude": 39.8879,
    "type": "ATM",
    "neighborhood": "Ehlibeyt Mh.",
    "single": "H",
    "onsite": "Onsite",
    "access": "",
    "serviceType": "",
    "salary": null,
    "barcodeReader": "H",
    "coin": "E",
    "moneyRecognition": "E"
  },
  {
    "bankId": "6003",
    "city": "06",
    "district": "Çankaya",
    "address": "8.Cadde 79.Sok.No:6 Emek",
    "longitude": 32.816563,
    "latitude": 39.9213,
    "type": "ATM",
    "neighborhood": "Emek Mh.",
    "single": "H",
    "onsite": "Onsite",
    "access": "",
    "serviceType": "",
    "salary": null,
    "barcodeReader": "H",
    "coin": "E",
    "moneyRecognition": "E"
  },
  {
    "bankId": "6003",
    "city": "06",
    "district": "Çankaya",
    "address": "Emek Mah. Hakkı Turayliç Caddesi No: 5 Ulaştırma Ve Den. Hab. Bak. İçi C Blok Çankaya",
    "longitude": 32.824154,
    "latitude": 39.916534,
    "type": "ATM",
    "neighborhood": "Emek Mh.",
    "single": "H",
    "onsite": "Onsite",
    "access": "",
    "serviceType": "",
    "salary": null,
    "barcodeReader": "H",
    "coin": "E",
    "moneyRecognition": "E"
  },
  {
    "bankId": "6003",
    "city": "06",
    "district": "Çankaya",
    "address": "Emek Mah. İsmet İnönü Bulvarı No:27 06490 Çankaya",
    "longitude": 32.827232,
    "latitude": 39.916046,
    "type": "ATM",
    "neighborhood": "Emek Mh.",
    "single": "H",
    "onsite": "Offsite",
    "access": "",
    "serviceType": "",
    "salary": null,
    "barcodeReader": "H",
    "coin": "E",
    "moneyRecognition": "E"
  },
  {
    "bankId": "6003",
    "city": "06",
    "district": "Çankaya",
    "address": "Etı Mah. Strazburg Cd. No: 16 / 31",
    "longitude": 32.851685,
    "latitude": 39.9281,
    "type": "ATM",
    "neighborhood": "Eti Mh.",
    "single": "H",
    "onsite": "Onsite",
    "access": "",
    "serviceType": "",
    "salary": null,
    "barcodeReader": "H",
    "coin": "E",
    "moneyRecognition": "E"
  },
  {
    "bankId": "6003",
    "city": "06",
    "district": "Çankaya",
    "address": "Mıthatpaşa Cad.No:30 Yenışehır",
    "longitude": 32.857727,
    "latitude": 39.92273,
    "type": "ATM",
    "neighborhood": "Fidanlık Mh.",
    "single": "H",
    "onsite": "Onsite",
    "access": "",
    "serviceType": "",
    "salary": null,
    "barcodeReader": "H",
    "coin": "E",
    "moneyRecognition": "E"
  },